City,Long,Lat,Longg,,,,,,,,,,,,Point x
8101 N Corrigan,-95.7,31.08,-95.7,Aug 25-31 12z,,,,,,,,,,,7.96
8167 N Segno,-96.54,30.42,96.54,Aug 25-31 12z,,,,,,,,,,,16.23
8196 NNW Moss Hill,-96.53,30.32,-96.53,Aug 25-31 12z,,,,,,,,,,,16.82
8214 N High Island,-95.08,29.55,-95.08,Aug 25-31 12z,,,,,,,,,,,40.12
8343 N High Island,-95.98,28.99,-95.98,Aug 25-31 12z,,,,,,,,,,,10.99
8344 N High Island,-96.01,28.97,-96.01,Aug 25-31 12z,,,,,,,,,,,18.26
ABERNATHY                     ,-101.86,33.84,-101.86,,,0,0,,,,,,,,0
ABERNATHY                     ,-101.76,33.88,-101.76,,,0,0,,,,,,,,0
Abernathy 3.2 NNW,-101.8618,33.88,101.8618,,,0.08,,0.11,,,,,,,0.19
ABILENE                       ,-99.68,32.41,-99.68,,,0.16,0,,,,,,,,0.16
Abilene 13.0 NNE,-99.6251,32.62,-99.6251,,0.71,0.07,,,,,,,,,0.78
Abilene 3.3 SW,-99.7758,32.42,-99.7758,0,0.52,0.07,0,0,0,0,0,,,,0.59
Abilene 4.7 SE,-99.6805,32.41,-99.6805,0,0.22,0.18,0,0,0,0,0,,,,0.4
Abilene 5.2 S,-99.7562,32.38,-99.7562,0.87,0.09,,,,,,,,,,0.96
Abilene 5.8 SSW,-99.7693,32.37,-99.7693,,0.86,0.1,,,,,,,,,0.96
Abilene 7.8 SSE,-99.6975,32.35,-99.6975,0.07,1.72,0.3,0.05,0,0,0,0,,,,2.14
Acala 2.4 NW,-105.9355,31.36,-105.9355,0,0,0,0,0,0,,0,,,,0
ADDICKS                       ,-95.77,29.8,-95.77,,,,,5.55,,,,,,,5.55
Addicks 1 ENE,-95.62,29.79,-95.62,Aug 25-31 12z,,,,,,,,,,,33.2
Addicks 1 SSW,-95.65,29.76,-95.65,Aug 25-31 12z,,,,,,,,,,,36.3
Addicks Dam,-95.6236,29.79,-95.6236,0.88,9.12,17.08,5.04,1.32,0,0,,,,,33.44
ADDICKS/ADDICKS RESERVOIR,-95.62,29.79,-95.62,,,,,,0.23,,,,,,0.23
Adkins 1.8 WNW,-98.2659,29.4,-98.2659,,0.87,2.1,0.47,,,,,,,,3.44
Adkins 6.4 SSE,-98.1993,29.31,-98.1993,0.28,1,3.26,0.92,0,0,0,0,,,,5.46
ALBANY                        ,-99.3,32.72,-99.3,,,0.01,,,,,,,,,0.01
ALBANY                  15 NNE,-99.24,32.93,-99.24,,,0.03,,,,,,,,,0.03
Aledo 2.0 W,-97.6381,32.69,-97.6381,0.32,0.07,0.14,0.13,0,,,,,,,0.66
Aledo 2.9 SW,-97.637,32.66,-97.637,0.35,0,0.12,0.13,0,0,0,0,,,,0.6
Aledo 4.1 W,-97.6745,32.69,-97.6745,1.2,,,0.23,,,,,,,,1.43
ALICE                         ,-98.02,27.74,-98.02,0.02,0.01,0.29,0,0.01,,,,,,,0.33
Allamoore 4.2 SW,-105.0696,31.06,-105.0696,0.15,0,0,0,,,,0,,,,0.15
Alpine 0.7 WSW,-103.6771,30.36,-103.6771,0.39,0,0.02,0,0,0,0,0,,,,0.41
Alpine 49.6 SSE,-103.3365,29.7,-103.3365,0,0,0.1,0,0,0,0,0,,,,0.1
Alpine 7.9 SE,-103.5797,30.28,-103.5797,0.88,0,0,0,0,0,0,0,,,,0.88
ALTAIR                        ,-96.42,29.58,-96.42,0,6.31,5.54,3.21,1.86,0,0,,,,,16.92
ALVARADO                      ,-97.22,32.44,-97.22,,,0.07,0.15,0.47,,,,,,,0.69
Alvin  ,-95.1787,29.41,-95.1787,,,,,,,,,,,,25.94
Alvin 1.6 SW,-95.2673,29.42,95.2673,1.3,5.9,8.96,10.8,5.92,0.72,,,,,,33.6
ALVORD                   4 NE ,-97.66,33.39,-97.66,,,0,0,0,0,,,,,,0
Amarillo 13.6 WSW,-102.0537,35.16,-102.0537,0.39,,,0.37,,,,,,,,0.76
Amarillo 2.9 WNW,-101.8691,35.21,-101.8691,,,,,2.2,,0,0,,,,2.2
Amarillo 3.5 SW,-101.8687,35.17,-101.8687,,,,0.12,,,,,,,,0.12
Amarillo 4.5 SE,-101.7591,35.16,-101.7591,,0.79,,0.1,,,,,,,,0.89
Amarillo 4.8 WSW,-101.8962,35.17,-101.8962,0.06,0.19,0,0.12,0,0,0,0,,,,0.37
Amarillo 4.9 SSE,-101.7997,35.13,-101.7997,0.09,0.3,,0.11,,,,,,,,0.5
Amarillo 5.0 W,-101.9062,35.2,-101.9062,,,,0.12,,,,,,,,0.12
Amarillo 7.2 SW,-101.9067,35.13,-101.9067,0.05,0,0,0.03,0,0,0,0,,,,0.08
Amarillo 9.2 S,-101.8153,35.07,-101.8153,0.03,0.05,0,0.03,0,0,,0,,,,0.11
AMISTAD                  7 S  ,-101.03,29.46,-101.03,,0.02,,0.02,,,,,,,,0.04
ANAHUAC                  1 ENE,-94.66,29.78,-94.66,0.56,,,,,,,,,,,0.56
Anahuac Ditch at Hwy 563,-94.6733,29.75,-94.6733,1.22,4.85,11.26,13.22,10.71,0.2,0,,,,,41.46
Anderson Mill 0.9 WNW,-97.8197,30.46,-97.8197,,0.97,2.2,0.76,,,,,,,,3.93
Anderson Mill 1 SE,-97.8,30.44,-97.8,Aug 25-28 12z,,,,,,,,,,,5.45
Anderson Mill 1 SW,-97.82,30.44,-97.82,Aug 25-28 12z,,,,,,,,,,,5.84
Anderson Mill 1.1 ENE,-97.788,30.46,-97.788,,0.65,2.93,,,,,,,,,3.58
Anderson Mill 2 SSE,-97.8,30.42,-97.8,Aug 25-28 12z,,,,,,,,,,,7.1
Anderson Mill 2.2 S,-97.8062,30.42,-97.8062,0.49,1.47,4.3,1.23,0.02,0,0,0,,,,7.51
Anderson Mill 3 WSW,-97.84,30.44,-97.84,Aug 25-28 12z,,,,,,,,,,,3.99
Anderson Mill 5 SSW,-97.82,30.42,-97.82,Aug 25-28 12z,,,,,,,,,,,4.99
Andice 1.6 SW,-97.857,30.76,-97.857,0.03,0.25,1.51,0.85,0,0,0,0,,,,2.64
Andice 2 NE,-97.77,30.86,-97.77,Aug 25-28 12z,,,,,,,,,,,2.37
ANGLETON                10 SW ,-95.29,29.14,-95.29,0.33,8.05,3.77,2.37,6.37,0.8,0,,,,,21.69
Angleton 1.3 E,-95.4068,29.17,-95.4068,2.13,7.16,3.46,3.3,4.92,0,0,0,,,,20.97
ANGLETON/LAKE JACKSON         ,-95.46,29.11,-95.46,2.02,5.61,2.34,2.45,5.91,0.16,,,,,,18.49
Anna 0.3 SW,-96.5525,33.35,-96.5525,,0.05,0.03,,,,,,,,,0.08
Anna 3.7 SSW,-96.5827,33.31,-96.5827,0,0.01,0.12,0.01,0,0,0,0,,,,0.14
ANSON                         ,-99.89,32.77,-99.89,,,0,,,,,,,,,0
ANTELOPE                      ,-98.37,33.44,-98.37,,,0,0,0,,,,,,,0
Anthony 1.0 ENE,-106.575,32,-106.575,0,0,0,0,0,0,0,0,,,,0
AQUILLA                  2 S  ,-97.21,31.84,-97.21,0.15,0,1.03,0,0,0,,,,,,1.18
Aquilla 1.3 NNE,-97.217,31.87,-97.217,0.21,0.16,0.8,0.01,0,0,0,,,,,1.18
Aransas  ,-96.8234,28.3,-96.8234,,,,,,,,,,,,15.33
Aransas Pass,-97.1222,27.96,-97.1222,,,Partial,,,,,,,,,6
Aransas National Estuarine Research Reserve,-97.0344,28.13,-97.0344,,,,,,,,,,,,12.38
ARCHER CITY                   ,-98.64,33.59,-98.64,,,,0,0,,,,,,,0
ARCHER CITY              5 N  ,-98.61,33.66,-98.61,,,0,0,0,,,,,,,0
Argyle 1.6 NNW,-97.1932,33.13,-97.1932,0.01,0.01,0.03,0.02,0.04,0,0,0,,,,0.11
ARLINGTON                     ,-97.13,32.74,-97.13,,,0.1,0.7,0.05,0.03,,,,,,0.88
ARLINGTON                     ,-97.09,32.66,-97.09,,,,0,0.1,0,,,,,,0.1
Arlington 3.8 NNW,-97.1583,32.74,-97.1583,,0,0.03,0.12,,,,,,,,0.15
Armand Bayou @ Beltway 8,-95.1835,29.68,-95.1835,1,11.52,15.88,10.12,4.84,0,0,,,,,43.36
Armand Bayou @ Genoa-Red Bluff Road,-95.1145,29.63,-95.1145,1,8.36,18.6,9.76,4.56,0,0,,,,,42.28
Armand Bayou @ Pasadena Lake (Nasa Road 1),-95.0708,29.56,-95.0708,1.68,5.52,20.68,10.12,3.52,0.04,0,,,,,41.56
ARMSTRONG                4 SE ,-97.71,26.83,-97.71,0.51,,0,0,0,,,,,,,0.51
Arp 5.9 NNW,-95.0982,32.31,-95.0982,,0.04,0.3,0.04,0,0,0,0,,,,0.38
Artesia Wells 14.0 SE,-99.0678,28.24,-99.0678,,0,0.01,,,,,,,,,0.01
ARTHUR CITY                   ,-95.5,33.88,-95.5,,,0,0,1.25,0.01,0,,,,,1.26
ARTHUR CITY              3 WSW,-95.54,33.85,-95.54,,,0,0,1,0,0,,,,,1
ASPERMONT                1 E  ,-100.23,33.15,-100.23,,,0,0,,,,,,,,0
ASPERMONT                3 NE ,-100.2,33.17,-100.2,,,0,0,,,,,,,,0
Atascosa 2.3 NE,-98.7069,29.29,-98.7069,,0.41,0.36,,,,,,,,,0.77
ATHENS                   3 SSE,-95.83,32.16,-95.83,,,0.19,0.03,0,0,0,,,,,0.22
ATHENS                   5 ENE,-95.77,32.22,-95.77,,,0.21,0.07,0,0,0,,,,,0.28
Athens 10.1 SSW,-95.9309,32.07,-95.9309,0,0.04,0.37,0.02,0,0,0.02,0,,,,0.45
ATLANTA                       ,-94.17,33.12,-94.17,,,,0,0,0,0.21,,,,,0.21
Atlanta 0.3 E,-94.1598,33.12,-94.1598,0,0,0,0,0,0,0.19,0,,,,0.19
Atlanta 14.1 SSE,-94.0454,32.94,-94.0454,,,,,,,0.74,,,,,0.74
Aubrey 2.9 SW,-97.0148,33.27,-97.0148,,0.03,0.06,,,,,,,,,0.09
Aubrey 5.9 SSE,-96.9433,33.23,-96.9433,,,,0,,,,,,,,0
AUSTIN                        ,-97.69,30.24,-97.69,0.13,1.18,6.78,1.72,0.01,0,,,,,,9.82
AUSTIN                        ,-97.77,30.26,-97.77,,0.04,,,,,,,,,,0.04
AUSTIN                        ,-97.8,30.35,-97.8,0,0.77,4.79,1.28,0.01,0,,,,,,6.85
AUSTIN                        ,-97.9,30.39,-97.9,0.07,0.67,3.19,0.84,0.01,0,,,,,,4.78
AUSTIN                        ,-97.72,30.25,-97.72,0.03,1.3,7.58,1.84,0,0,,,,,,10.75
AUSTIN                        ,-97.65,30.28,-97.65,0.22,1.13,6.14,1.8,0.01,0,,,,,,9.3
AUSTIN                   4 SW ,-97.8,30.24,-97.8,0,1.02,5.45,1.26,0,0,,,,,,7.73
AUSTIN                   7 NW ,-97.79,30.37,-97.79,0,0.86,4.48,1.26,0.02,0,,,,,,6.62
AUSTIN                   8 SSE,-97.7,30.17,-97.7,0,1.5,7.95,1.52,0.03,,,,,,,11
AUSTIN                  10 NW ,-97.87,30.35,-97.87,0.01,0.64,4.56,1.04,0.01,0,,,,,,6.26
AUSTIN                  11 NW ,-97.93,30.33,-97.93,0.01,0.58,3.61,0.72,0,0,,,,,,4.92
AUSTIN                  16 NW ,-97.96,30.37,-97.96,0.05,0.54,3.38,0.88,0,0,,,,,,4.85
AUSTIN                  25 NW ,-97.98,30.46,-97.98,0.17,0.55,2.9,1.07,0,0,,,,,,4.69
Austin 0.8 WSW,-97.7629,30.3,-97.7629,,0.87,4.38,1.34,,,,,,,,6.59
Austin 1 ENE,-97.72,30.28,-97.72,Aug 25-28 12z,,,,,,,,,,,3.31
Austin 1.0 N(45th&ShCrk),-97.7502,30.32,-97.7502,0.04,0.94,5.37,1.68,0.02,0,0,0,,,,8.05
Austin 1.0 NNE,-97.7438,30.32,-97.7438,0.03,0.9,4.6,1.29,0.03,0,0,0,,,,6.85
Austin 1.6 NE,-97.7346,30.32,-97.7346,0,1.81,4.68,1.48,0,0,0,0,,,,7.97
Austin 1.7 NNW(45th&Lp1),-97.7621,30.33,-97.7621,,1.58,4.75,1.62,0,0,0,0,,,,7.95
Austin 10.0 NNW (GrtHills),-97.7664,30.41,-97.7664,0.04,1.52,3.29,1.31,0.03,0,0,0,,,,6.19
Austin 10.5 N,-97.7578,30.42,-97.7578,0.06,0.85,4.68,1.56,0.03,0,,,,,,7.18
Austin 10.8 WSW,-97.9022,30.2,-97.9022,0,0.53,4.58,1.13,0.02,0,0,0,,,,6.26
Austin 13.7 WNW,-97.9331,30.38,-97.9331,,0.72,3.23,0.97,,,,,,,,4.92
Austin 14.7 WSW,-97.9747,30.2,-97.9747,0.15,1.03,5.81,1.24,0.02,,,,,,,8.25
Austin 2 NNE,-97.73,30.29,-97.73,Aug 25-28 12z,,,,,,,,,,,7.08
Austin 2 NW,-97.76,30.29,-97.76,Aug 25-28 12z,,,,,,,,,,,5.72
Austin 2.2 NNE,-97.7327,30.33,-97.7327,,5.8,2,0.8,,,,,,,,8.6
Austin 2.6 ENE,-97.7122,30.32,-97.7122,0.03,,,,,0,0,0,,,,0.03
Austin 2.9 NE(Lamar&Arpt),-97.7228,30.34,-97.7228,0.09,3.27,4.57,0.91,0.01,0,0,0,,,,8.85
Austin 2.9 NNW,-97.7762,30.34,-97.7762,0.02,0.82,4.64,1.51,0.03,0,0,0,,,,7.02
Austin 3 NNE,-97.73,30.3,-97.73,Aug 25-28 12z,,,,,,,,,,,6.22
Austin 3 SE,-97.71,30.23,-97.71,Aug 25-28 12z,,,,,,,,,,,2.9
Austin 3.9 NNE,-97.7236,30.36,-97.7236,0.28,1.03,6.12,2.05,0.02,0,0,0,,,,9.5
Austin 4 NE,-97.69,30.32,-97.69,Aug 25-28 12z,,,,,,,,,,,4.68
Austin 4 SSE,-97.73,30.25,-97.73,Aug 25-28 12z,,,,,,,,,,,10.68
Austin 4.0 SSE,-97.7262,30.25,-97.7262,,0.83,3.7,1.32,0.07,,,,,,,5.92
Austin 4.1 SSW,-97.7785,30.25,-97.7785,0,1.08,4.81,1.33,0,0,,,,,,7.22
Austin 4.1 SW,-97.794,30.23,-97.794,0,1.8,5.2,1.46,,,,,,,,8.46
Austin 4.2 ESE,-97.6813,30.29,-97.6813,0.19,2.22,5.44,2.05,,,,,,,,9.9
Austin 4.2 NW(360&Penneb),-97.7947,30.35,-97.7947,0,1.26,3.56,1.34,0,0,0,0,,,,6.16
Austin 4.5 ENE,-97.6772,30.32,-97.6772,0.02,2.18,4.79,1.55,0.02,0,0,0,,,,8.56
Austin 4.5 NNE,-97.7313,30.37,-97.7313,0.03,1.5,5.06,1.99,0.03,0,0,0,,,,8.61
Austin 4.7 E(JordanPk),-97.6728,30.31,-97.6728,0.06,1.72,4.47,1.58,0,0,0,0,,,,7.83
Austin 4.7 NNE,-97.7328,30.37,-97.7328,0,1.51,4.68,1.87,0.02,,,,,,,8.08
Austin 5 NNW,-97.75,30.34,-97.75,Aug 25-28 12z,,,,,,,,,,,6.6
Austin 5.6 WSW,-97.8392,30.28,-97.8392,0,1.41,5.11,1.34,0.01,0,0,0,,,,7.87
Austin 5.8 ENE,-97.6619,30.34,-97.6619,0.1,,,,,,,,,,,0.1
Austin 5.8 ESE,-97.6694,30.26,-97.6694,,,7.71,,,,,,,,,7.71
Austin 5.9 NW,-97.8134,30.37,-97.8134,0.17,0.88,2.65,0.88,0.03,0,0,0,,,,4.61
Austin 6.5 NE,-97.6895,30.38,-97.6895,0.11,1.83,5.01,1.98,0.02,,,,,,,8.95
Austin 7.3 SW,-97.844,30.21,-97.844,,1.06,6.6,1.44,,,,,,,,9.1
Austin 7.6 W,-97.8775,30.3,-97.8775,0,0.93,3.49,0.98,0.01,0,0,0,,,,5.41
Austin 7.7 SW,-97.848,30.23,-97.848,,1.45,5.85,1.3,0.03,,,,,,,8.63
Austin 7.8 SW,-97.8476,30.23,-97.8476,,1.71,5.82,1.42,,,,,,,,8.95
Austin 7.9 N,-97.7757,30.42,-97.7757,0,,,,,,,,,,,0
Austin 8.2 WSW,-97.8739,30.23,-97.8739,,1.1,5.61,1.25,0.03,,,,,,,7.99
Austin 8.5 NNW,-97.805,30.42,-97.805,0,1.61,4.05,1.22,0.03,,,,,,,6.91
Austin 9.0 SW,-97.8668,30.22,-97.8668,,2.06,3.29,0.94,,,0,,,,,6.29
Austin 9.7 WSW,-97.9013,30.24,-97.9013,,1.33,4.44,0.92,,,,,,,,6.69
Austin 9.8 WSW,-97.8962,30.24,-97.8962,0,0.89,5.17,1.21,0.03,,,,,,,7.3
AUSTIN Bergstrom Int'l AP          ,-97.68,30.18,-97.68,0,1.24,7,1.83,0,0,,,,,,10.07
AUSTIN City      ,-97.7,30.3,-97.7,0.02,0.94,5.39,1.6,0.01,0,,,,,,7.96
AUSTIN GREAT HILLS            ,-97.77,30.42,-97.77,,,4.78,1.31,0.03,0,,,,,,6.12
AUSTWELL                      ,-96.84,28.39,-96.84,0.65,,,,,,,,,,,0.65
Austwell 0.3 ESE,-96.8382,28.39,-96.8382,0.65,,,,,,,,,,,0.65
Avinger 6.6 S,-94.5502,32.8,-94.5502,,,,,0,0,0.31,0,,,,0.31
Axtell 1.9 SW,-96.992,31.64,-96.992,0,0.01,0.56,0.1,0,0,0,0,,,,0.67
Bacliff 0.5 SSE,-94.9898,29.5,-94.9898,0.71,2.16,21.62,3.09,10.56,2.35,0,0,,,,40.49
Bacliff 1.2 E,-94.9727,29.51,-94.9727,,7.25,11.5,3.15,9.34,,,,,,,31.24
Baird 0.1 WNW,-99.3967,32.4,-99.3967,0.59,0.09,,,,,,,,,,0.68
BALCONES                      ,-98.04,30.57,-98.04,0.44,0.17,1.92,0.9,0,,,,,,,3.43
BALLINGER                3 NW ,-98.98,31.74,-98.98,0.02,0.1,0,0,,,,,,,,0.12
Bandera 0.2 N,-99.0735,29.73,-99.0735,0,0,0.22,0.02,0,0,0,0,,,,0.24
Bandera 3.2 W,-99.1262,29.72,-99.1262,0,0.25,0.11,0.04,0,0,,,,,,0.4
Bandera 4.0 E,-99.0073,29.73,-99.0073,0,0.03,0.36,0.01,0,0,0,0,,,,0.4
Bandera 4.0 NNW,-99.1063,29.78,-99.1063,0,0.2,0.22,0.05,0,0,0,0,,,,0.47
Bandera 4.7 NE,-99.0161,29.77,-99.0161,0,0.07,0.51,0.02,0,0,0,0,,,,0.6
Bandera 5.2 E,-98.988,29.72,-98.988,0,0.05,0.3,0.01,0,0,0,0,,,,0.36
Bandera 6.4 N,-99.0839,29.82,-99.0839,0.54,0.17,0.18,,,,,,,,,0.89
Bandera 6.5 NW,-99.1434,29.8,-99.1434,,0.22,0.28,0,0,0,0,0,,,,0.5
Bandera 7.4 ENE,-98.9652,29.78,-98.9652,,,0.75,0.05,,,,,,,,0.8
Bandera 8.4 NE,-98.9632,29.8,-98.9632,,,,0,0,0,0,0,,,,0
Bandera 8.6 NNW,-99.1191,29.84,-99.1191,0.05,0.3,0.4,,,,,0,,,,0.75
Bankersmith,-98.82,30.13,-98.82,Aug 25-28 12z,,,,,,,,,,,1.52
Bankersmith 8 WNW,-98.93,30.2,-98.93,Aug 25-28 12z,,,,,,,,,,,1.29
BARDWELL                      ,-96.65,32.25,-96.65,,,0.23,0.18,0,,,,,,,0.41
Barker Dam,-95.6468,29.77,-95.6468,1.2,8.92,17.16,7.4,1.8,0,0,,,,,36.48
BARNHART                10 S  ,-101.16,30.99,-101.16,,,0.01,0,,,,,,,,0.01
Bartlett 4 WSW,-97.47,30.77,-97.47,Aug 25-28 12z,,,,,,,,,,,4.46
Bartlett 5.0 W,-97.5162,30.79,-97.5162,0,0.23,3.17,1.79,0.03,0,0,0,,,,5.22
BASTROP                       ,-97.31,30.04,-97.31,0.5,2.23,13.94,3.39,0.1,0,,,,,,20.16
Bastrop 0.6 WNW,-97.3149,30.12,-97.3149,0.21,3.47,11,2.3,0,0,0,0,,,,16.98
Bastrop 1 WSW,-97.33,30.1,-97.33,Aug 25-28 12z,,,,,,,,,,,16.4
Bastrop 1.0 WNW,-97.3226,30.12,-97.3226,,,,,,,0,0,,,,0
Bastrop 1.2 N,-97.3025,30.13,-97.3025,0.25,2.2,12.96,2.96,0.03,0,0,0,,,,18.4
Bastrop 1.5 NW,-97.3353,30.11,-97.3353,0.44,6.14,8.72,1.42,,0,0,0,,,,16.72
Bastrop 2.1 SSW,-97.3173,30.08,-97.3173,,3.3,9.13,2.89,0.02,,,,,,,15.34
Bastrop 2.4 WNW,-97.3437,30.12,-97.3437,0.78,2.39,11.19,2.56,0.07,0,0,0,,,,16.99
Bastrop 3.0 SSE,-97.2837,30.07,-97.2837,,3.5,13.4,2.6,,0,0,0,,,,19.5
Bastrop 4.4 NE,-97.245,30.15,-97.245,0.05,3.35,9.5,3.1,0,0,0,0,,,,16
Bastrop 4.7 NE,-97.2553,30.17,-97.2553,,3.5,10.86,3.11,0.02,0,0,,,,,17.49
Bastrop 5 S,-97.32,30.03,-97.32,Aug 25-28 12z,,,,,,,,,,,19.62
Bastrop 5.1 NE,-97.2498,30.17,-97.2498,,10.1,5.22,1.65,0.02,0,0,0,,,,16.99
Bastrop 5.2 SE,-97.2496,30.05,-97.2496,0,3.35,10.7,3.84,0.03,0,0,0,,,,17.92
Bastrop 5.7 NE,-97.2373,30.17,-97.2373,0,3.4,10.61,3.3,0,,,,,,,17.31
Bastrop 5.7 SW,-97.359,30.04,-97.359,0.39,2.13,12.97,3.75,0.02,0,0,0,,,,19.26
Bastrop 5.8 NE,-97.2327,30.17,-97.2327,0.02,7.32,6.63,3.18,0,0,0,0,,,,17.15
Bastrop 7.2 N,-97.3284,30.22,-97.3284,0,2.87,5.16,2.42,0.05,0,0,0,,,,10.5
Bastrop 7.6 N,-97.3242,30.22,-97.3242,0,2.97,7.58,2.85,0.07,0,0,0,,,,13.47
Bastrop/Cedar Creek,-97.5,30.09,-97.5,Aug 25-28 12z,,,,,,,,,,,15.25
Batiste Creek @ State Highway 770 (Hull),-94.6428,30.16,-94.6428,0.27,3.19,11.97,7.32,8.82,1.89,0,,,,,33.46
Batson 2 ENE,-94.58,30.25,-94.58,Aug 24-Sep 1 12z,,,,,,,,,,,33.07
BAY CITY                      ,-96.01,28.94,-96.01,0.86,8.45,5.36,0.49,7.94,0.01,0,,,,,23.11
Baytown 2 NW,-95,29.77,-95,Aug 25-31 12z,,,,,,,,,,,42.9
Baytown 4 E,-94.97,29.74,-94.97,Aug 25-31 12z,,,,,,,,,,,42.72
Bayview 2.9 N,-97.3983,26.17,-97.3983,0.54,,0.3,,,,,,,,,0.84
Beamer Ditch @ Hughes Road,-95.2221,29.59,-95.2221,1.64,13.52,13.4,8.28,3.16,0,0,,,,,40
Bear Creek @ Clay Road,-95.6871,29.83,-95.6871,0.84,8.72,16.28,5.16,1.48,0,0,,,,,32.48
Bear Creek @ FM 529,-95.7695,29.88,-95.7695,0.76,9.24,17.64,4,1.32,0,0,,,,,32.96
Beaumont,-94.14,30.08,-94.14,Aug 24-Sep 1 12z,,,,,,,,,,,41.42
Beaumont,-94.14,30.08,-94.14,Aug 24-Sep 1 12z,,,,,,,,,,,38.86
BEAUMONT                      ,-94.1,30.1,-94.1,0.05,0.55,4.95,10.18,4.6,14.5,,,,,,34.83
BEAUMONT                10 W  ,-94.28,30.07,-94.28,0.05,,,,,,,,,,,0.05
Beaumont 1 ENE,-94.13,30.09,-94.13,Aug 24-Sep 1 12z,,,,,,,,,,,38.5
Beaumont 1 NW,-94.16,30.09,-94.16,Aug 24-Sep 1 12z,,,,,,,,,,,41.5
Beaumont 2 NNW,-94.16,30.11,-94.16,Aug 24-Sep 1 12z,,,,,,,,,,,36.22
Beaumont 2 SE,-94.12,30.06,-94.12,Aug 24-Sep 1 12z,,,,,,,,,,,41.42
Beaumont 2 SW,-94.17,30.06,-94.17,Aug 24-Sep 1 12z,,,,,,,,,,,43.23
Beaumont 2 W,-94.18,30.08,-94.18,Aug 24-Sep 1 12z,,,,,,,,,,,41.93
Beaumont 3 N,-94.14,30.13,-94.14,Aug 24-Sep 1 12z,,,,,,,,,,,39.76
Beaumont 3 NE,-94.11,30.11,-94.11,Aug 24-Sep 1 12z,,,,,,,,,,,39.65
Beaumont 3.3 SW,-94.182,30.05,-94.182,0.18,1.34,5.86,12.38,11.32,,1.72,0,,,,32.8
Beaumont 4 NNW,-94.17,30.14,-94.17,Aug 24-Sep 1 12z,,,,,,,,,,,39.8
Beaumont 4 S,-94.14,30.02,-94.14,Aug 24-Sep 1 12z,,,,,,,,,,,49.06
Beaumont 4 SW,-94.19,30.04,-94.19,Aug 24-Sep 1 12z,,,,,,,,,,,43.78
Beaumont 4 WSW,-94.21,30.06,-94.21,Aug 24-Sep 1 12z,,,,,,,,,,,46.54
Beaumont 4.6 S,-94.1555,30.02,-94.1555,0,0.86,9.81,7.52,11,15.31,1,0,,,,45.5
Beaumont 5 NNW,-94.18,30.15,-94.18,Aug 24-Sep 1 12z,,,,,,,,,,,41.3
Beaumont 6 SSW,-94.18,30,-94.18,Aug 24-Sep 1 12z,,,,,,,,,,,46.38
Beaumont Yacht Club @ Neches River,-94.0911,30.1,-94.0911,0.36,3.11,8.93,5.59,17.41,6.02,0,,,,,41.42
Bedford 0.5 W,-97.1421,32.85,-97.1421,0.01,0,0.17,0.57,0,0,0,0,,,,0.75
Bedford 0.6 NNE,-97.131,32.85,-97.131,0.02,0,0.16,0.52,0,0,,,,,,0.7
Bee Cave 1 ESE,-97.93,30.3,-97.93,Aug 25-28 12z,,,,,,,,,,,6.72
Bee Cave 2.5 ENE,-97.9165,30.32,-97.9165,0,1.15,3.19,0.7,0.02,0,0,0,,,,5.06
Bee Cave 4 SSE,-97.92,30.26,-97.92,Aug 25-28 12z,,,,,,,,,,,4.35
Beeville 4.5 NW,-97.8038,28.45,-97.8038,2.7,,,0.04,0.1,0,0,0,,,,2.84
Beeville 9.0 S,-97.7601,28.28,-97.7601,0.11,2.27,0.74,0.25,0.02,0,0,0,,,,3.39
Beeville 12.6 NNE,-97.7006,28.58,-97.7006,0.02,3.1,1.02,0.9,,,,,,,,5.04
Bellaire 4.2 W,-95.53,29.7,-95.53,0.02,2.44,10.87,6.77,6.48,0.49,0,0,,,,27.07
BELLVILLE                     ,-96.2,30.02,-96.2,,,,,0.78,,0,,,,,0.78
Bellville 0.4 NE,-96.2544,29.95,-96.2544,0.57,4.89,7.68,10.65,0.87,0,0,0,,,,24.66
Bellville 0.9 ENE,-96.2452,29.95,96.2452,0.46,4.7,6.7,10.39,0.88,0.02,0,,,,,23.15
Bellville 6.5 NNE,-96.2209,30.03,-96.2209,0.13,3.32,4.91,8.61,0.82,0.02,0,0,,,,17.81
BELTON                   5 WSW,-97.53,31.02,-97.53,0,0.22,1.22,0.44,0,,,,,,,1.88
Belton 0.4 E,-97.4564,31.07,-97.4564,0,0.04,1.13,0.38,0.01,0,0,0,,,,1.56
Belton 1.4 WSW,-97.4847,31.06,-97.4847,0,0.22,,,0,,0,0,,,,0.22
Belton 1.6 W,-97.4912,31.06,-97.4912,0,0.18,1.01,,0,,0,0,,,,1.19
Belton 2.3 NNW,-97.4816,31.1,-97.4816,0,0.02,1.05,0.44,0,0,0,0,,,,1.51
Belton 3.9 N,-97.4733,31.12,-97.4733,0,0.02,1.11,0.43,0.01,0,0,0,,,,1.57
Belton 4.4 WNW,-97.5319,31.09,-97.5319,0.02,0,1.12,0.4,0.02,0,0,0,,,,1.56
Belton 5.4 NW,-97.5284,31.12,-97.5284,0,0.01,0.95,0.51,0,0,0,0,,,,1.47
Belton 6.0 N,-97.4753,31.15,-97.4753,0.21,0.23,0.86,0.55,0.02,0,,0,,,,1.87
Belton 6.4 S,-97.4605,30.98,-97.4605,0,0.3,1.3,1.21,0.03,0,0,0,,,,2.84
Belton 7.4 WSW,-97.5846,31.04,-97.5846,0,0.23,1.5,0.5,0,0,0,,,,,2.23
Ben Wheeler 1.7 WNW,-95.7319,32.45,-95.7319,,,0.05,0.02,0,0,0.01,0,,,,0.08
Ben Wheeler 2.4 N,-95.7026,32.48,-95.7026,0,0,0.12,0.01,0,0,0.01,0,,,,0.14
Ben Wheeler 3.9 ESE,-95.6385,32.43,-95.6385,,,,0.05,0,0,0,,,,,0.05
BENBROOK                      ,-97.44,32.65,-97.44,,,0,0.35,0,,,,,,,0.35
Benbrook 2.1 N,-97.4603,32.71,-97.4603,1.05,0.01,0.06,0.25,,,,,,,,1.37
BEND                          ,-98.52,31.09,-98.52,0,0,0.05,0.27,0,,,,,,,0.32
BEND                     3 S  ,-98.5,31.05,-98.5,0.11,0,0.08,0.14,0,,,,,,,0.33
BENJAMIN                 4 N  ,-99.8,33.65,-99.8,,,0,0,,,,,,,,0
Benjamin 0.2 SSE,-99.7922,33.58,-99.7922,0,,,0,0,0,0,0,,,,0
Berclair 7.3 NW,-97.6647,28.61,-97.6647,0.07,4.33,1.43,1.24,0.03,0,0,0,,,,7.1
Bergstrom 2 SW,-97.69,30.17,-97.69,Aug 25-28 12z,,,,,,,,,,,9.58
Bergstrom 3 NNW,-97.68,30.22,-97.68,Aug 25-28 12z,,,,,,,,,,,9.64
Bergstrom 5 N ,-97.67,30.27,-97.67,Aug 25-28 12z,,,,,,,,,,,9.05
Bergstrom 5 NE,-97.62,30.24,-97.62,Aug 25-28 12z,,,,,,,,,,,9.32
Berry Bayou @ Forest Oaks Boulevard,-95.2436,29.67638882,-95.24361,1.16,13.64,15.72,9.64,4.72,0,0,,,,,44.88
Berry Bayou @ Nevada Avenue,-95.2289,29.66,-95.2289,1.48,14.4,14.84,9.24,4.64,0,0,,,,,44.6
Berry Creek,-97.68,30.7,-97.68,Aug 25-28 12z,,,,,,,,,,,4.05
BERTRAM                  3 ENE,-98.02,30.76,-98.02,,0.03,1.21,0.58,,,,,,,,1.82
Bertram 6.4 ESE,-97.9559,30.71,-97.9559,0.06,0.41,1.4,,,,,,,,,1.87
Bertram 7 SSW,-98.08,30.65,-98.08,Aug 25-28 12z,,,,,,,,,,,2.75
BERTRAM 8 SSW,-98.11,30.64,-98.11,0.01,0.13,1.88,0.81,0.01,,,,,,,2.84
Bertram 8.8 SSW,-98.1046,30.62,-98.1046,0.02,0.47,1.45,0.52,0.01,0,0,0,,,,2.47
Bertram 9 NNW,-98.09,30.85,-98.09,Aug 25-28 12z,,,,,,,,,,,0.85
Bertram 9.1 SSW,-98.0877,30.61,-98.0877,0.02,0.49,1.7,0.64,0,0,0,0,,,,2.85
Bertram 9.4 NE,-97.9661,30.85,-97.9661,0,0.31,1.63,0.78,,0,,,,,,2.72
Bevil Oaks 1 SW,-94.28,30.14,-94.28,Aug 24-Sep 1 12z,,Incomplete,,,,,,,,,31.38
Bevil Oaks 2 SE,-94.25,30.13,-94.25,Aug 24-Sep 1 12z,,,,,,,,,,,37.8
Bevil Oaks 4 E,-94.2,30.15,-94.2,Aug 24-Sep 1 12z,,Incomplete,,,,,,,,,33.66
Bevil Oaks 4 E,-94.2,30.15,-94.2,Aug 24-Sep 1 12z,,Incomplete,,,,,,,,,24.72
Bevil Oaks 4 S,-94.27,30.09,-94.27,Aug 24-Sep 1 12z,,,,,,,,,,,39.25
Bevil Oaks 5 ENE,-94.19,30.18,-94.19,Aug 24-Sep 1 12z,,Incomplete,,,,,,,,,47.28
Big Island Slough @ Fairmont Parkway,-95.076,29.65,-95.076,1.04,5.16,18.08,9.72,4.96,0,0,,,,,38.96
BIG LAKE                25 NE ,-101.28,31.53,-101.28,,,0,0,,,,,,,,0
Big Sandy 3.9 E,-95.0456,32.59,-95.0456,0,0,0,0.14,0.01,0,0.02,0,,,,0.17
Big Sandy 6.6 N,-95.1312,32.68,-95.1312,0,0,0.02,0,0,,,,,,,0.02
BIG SPRING               1 NNW,-101.49,32.27,-101.49,,,,0,,,,,,,,0
Birch Creek @ Riley Road,-95.8395,30.24,-95.8395,0.28,12.36,13.6,1.64,0.48,0,0,,,,,28.36
Black Creek @ State Highway 326,-94.3647,30.26,-94.3647,0.24,3.15,11.18,6.81,12.6,8.62,0,,,,,42.6
BLACKWELL                     ,-100.29,32.05,-100.29,,,0.02,0,,,,,,,,0.02
BLANCO                        ,-98.42,30.1,-98.42,0.26,0.4,0.6,,0,,,,,,,1.26
BLANCO                   5 NNE,-98.38,30.16,-98.38,0.48,0.59,2.24,0.82,0,,,,,,,4.13
BLANCO                  13 WNW,-98.61,30.17,-98.61,0,0.38,1.45,0.46,0,,,,,,,2.29
Blanco 1.8 ESE,-98.3927,30.09,-98.3927,0.02,0.88,1.85,0.66,0,0,0,0,,,,3.41
Blanco 11.6 W,-98.6154,30.11,-98.6154,,0.3,1.4,,,,,,,,,1.7
Blanco 4 NNE,-98.4,30.15,-98.4,Aug 25-28 12z,,,,,,,,,,,3.61
Blanco 5.1 ENE,-98.3413,30.12,-98.3413,0.03,0.39,,,,,,,,,,0.42
Blanco 5.5 E,-98.3297,30.09,-98.3297,0,0.63,2.52,0.76,0,0,0,0,,,,3.91
Blanco 5.7 W,-98.5181,30.11,-98.5181,0,0.08,0.72,0.3,,,,,,,,1.1
Blanco 6.8 WSW,-98.5261,30.06,-98.5261,,0.41,0.92,0.39,,,,,,,,1.72
Blanco 8.3 ENE,-98.2915,30.14,-98.2915,0.04,0.78,2.58,0.85,,0,,0,,,,4.25
Blanco 8.8 ENE,-98.2865,30.15,-98.2865,0,0.41,3.48,1.05,0,,,0,,,,4.94
Blanco River,-98.02,29.94,-98.02,Aug 25-28 12z,,,,,,,,,,,9.08
Blooming Grove 2.4 SW,-96.745,32.07,-96.745,0.09,0.07,0.4,0,0.08,0,0,0,,,,0.64
Blue Mound 1.6 ENE,-97.3131,32.87,-97.3131,1.17,0.04,0.19,0.84,0,0,0,0,,,,2.24
Blue Mound 2.3 E,-97.2977,32.85,-97.2977,1.13,,,,0,0,0,0,,,,1.13
Blue Ridge 5.1 ESE,-96.3176,33.27,-96.3176,0,0.39,0.01,0.03,0.26,0,0,0,,,,0.69
BLUFFTON                 5 ESE,-98.36,30.84,-98.36,0,0,0.45,0.32,0,,,,,,,0.77
Blum 7.2 ESE,-97.2769,32.12,-97.2769,0.75,,,0.6,,,,,,,,1.35
Bob Love Ranch,-105.1944,30.83,-105.1944,,,,,,,0,,,,,0
BOERNE                        ,-98.73,29.8,-98.73,0.12,0.1,1.08,0.21,,,,,,,,1.51
Boerne 0.7 N,-98.7332,29.8,-98.7332,0,0.1,0.77,0.19,0,0,0,0,,,,1.06
Boerne 1.2 E,-98.7122,29.79,-98.7122,0,0.22,0.89,0.23,0,,,,,,,1.34
Boerne 1.2 NNW,-98.7428,29.81,-98.7428,0,,,,0,,0,,,,,0
Boerne 1.6 ESE,-98.709,29.78,-98.709,0.02,,,,0,0,0,0,,,,0.02
Boerne 1.8 E,-98.7014,29.79,-98.7014,0.02,0.41,,,,,,,,,,0.43
Boerne 10.6 NE,-98.6093,29.9,-98.6093,0.03,0.09,0.74,0.43,0,0,0,0,,,,1.29
Boerne 10.9 N,-98.7016,29.95,-98.7016,0.11,0.34,0.7,0.2,,,,,,,,1.35
Boerne 11.0 ENE,-98.5738,29.88,-98.5738,,,0.59,,,,,,,,,0.59
Boerne 13.4 NE,-98.5506,29.91,-98.5506,0,0.52,0.43,0,0,0,0,0,,,,0.95
Boerne 2.0 WNW,-98.7647,29.8,-98.7647,,0.2,0.55,,,,,,,,,0.75
Boerne 2.1 WNW,-98.7639,29.81,-98.7639,,0.22,0.8,,,,,,,,,1.02
Boerne 2.2 WNW,-98.767,29.8,-98.767,0,0.26,0.69,,,0,0,0,,,,0.95
Boerne 3.4 N,-98.7398,29.84,-98.7398,0,0.18,0.7,,,,,,,,,0.88
Boerne 4.0 WSW,-98.7868,29.76,-98.7868,0,0.08,0.7,0.26,0,0,0,0,,,,1.04
Boerne 4.3 NE,-98.6947,29.85,98.6947,0,0.01,0.6,0.24,0,0,0,,,,,0.85
Boerne 4.7 WNW,-98.8009,29.83,98.8009,0,0.18,0.65,0.03,0,0,0,0,,,,0.86
Boerne 5.1 NNW,-98.7774,29.86,98.7774,0.02,0.14,0.54,0.07,0,0,0,0,,,,0.77
Boerne 5.2 ENE,-98.653,29.83,98.653,0,0.2,0.67,0.38,0,0,0,0,,,,1.25
Boerne 5.3 N,-98.725,29.87,98.725,,0.08,0.55,0.18,,,,,,,,0.81
Boerne 6.0 WSW,-98.8202,29.75,98.8202,0,0.15,1.38,0.08,0,0,0,0,,,,1.61
Boerne 6.5 N,-98.7257,29.89,98.7257,,0.08,0.59,0.19,,,,,,,,0.86
Boerne 7.8 NE,-98.6495,29.88,98.6495,,0.18,0.3,0.23,,,,,,,,0.71
Boerne 8.1 NNW,-98.7694,29.91,98.7694,0,0.73,0.55,0.05,0,0,0,0,,,,1.33
Boerne 8.4 ENE,-98.5967,29.82,98.5967,0.07,0.41,0.8,0.37,0,0,0,0,,,,1.65
Boerne 8.5 NNW,-98.7625,29.91,98.7625,0,0.53,0.67,0.1,0,0,0,0,,,,1.3
Boerne 8.8 NE,-98.6158,29.87,98.6158,,,0.65,0.35,0,0,0,0,,,,1
BONHAM                   3 NNE,-96.17,33.62,-96.17,,,,0,0,0,0,,,,,0
Bonham 4.0 NE,-96.1408,33.64,96.1408,0,0,0.01,0,0,0,0,0,,,,0.01
BONITA                   4 NW ,-97.63,33.84,-97.63,,,,0,0,0,,,,,,0
Boondocks Road @ Taylors Bayou @ South Fork ( bridge ),-94.2264,29.85,-94.2264,0.75,3.15,7.12,7.91,27.49,1.57,0,,,,,47.99
Borger 0.7 NNE,-101.3953,35.67,101.3953,0,0,0,0,0,0,0,0,,,,0
Bosque Bonita,-105.0606,30.7,105.0606,,,,,,,0,,,,,0
BOWIE                         ,-97.85,33.54,-97.85,,,,,,0,,,,,,0
Brackettville 0.8 S,-100.4121,29.31,100.4121,0,0,0,0,0,0,0,0,,,,0
Brackettville 13.8 W,-100.6389,29.31,100.6389,0,0,0,0,0,,0,,,,,0
Brackettville 5.1 W,-100.4943,29.32,100.4943,0,0,0,0,0,0,0,0,,,,0
BRADY                         ,-99.33,31.14,-99.33,0.83,0,0.04,0.04,,,,,,,,0.91
BRADY                    8 SSE,-99.27,31,-99.27,1.97,0.04,0.05,0.29,,,,,,,,2.35
Brady 8.1 NNE,-99.3412,31.25,99.3412,0.2,0,0.59,0.08,0,0,0,0,,,,0.87
Brays Bayou @ Bellaire Boulevard,-95.5661,29.7,-95.5661,0.92,7.96,13.24,7.44,1.36,0,0,,,,,30.92
Brays Bayou @ Belle Park Drive,-95.5825,29.71,-95.5825,1.28,10.2,15.56,5.96,0.96,0,0,,,,,33.96
Brays Bayou @ Beltway 8,-95.5566,29.7,-95.5566,1.24,10.08,14.84,7.52,1.28,0,0,,,,,34.96
Brays Bayou @ Gessner Road,-95.528,29.67,-95.528,1.48,9.36,15.32,7.48,1.56,0,0,,,,,35.2
Brays Bayou @ Lawndale Street,-95.3053,29.72,-95.3053,0.96,8.48,14.28,8.8,3.2,0,0,,,,,35.72
Brays Bayou @ Rice Avenue,-95.4673,29.68,-95.4673,1.44,8.28,14.72,8.08,1.88,0,0,,,,,34.4
Brays Bayou @ SH 6,-95.6439,29.72,-95.6439,1.16,7.92,15.12,6,1.04,0,0,,,,,31.24
Brays Bayou @ South Main Street,-95.4121,29.7,-95.4121,0.96,4.72,13.36,8,2.44,0,0,,,,,29.48
Brays Bayou @ Stella Link Road,-95.4399,29.69,-95.4399,1.36,4.88,13.12,8.52,2.44,0,0,,,,,30.32
Brenham,-96.4,30.15,-96.4,Aug 25-31 12z,,,,,,,,,,,16.94
BRENHAM                       ,-96.4,30.17,-96.4,0,2.55,5.6,7.48,1.27,0.04,0,,,,,16.94
Brenham 0.7 E,-96.3849,30.16,96.3849,0,2.41,5.42,8.21,1.21,0.02,0,0,,,,17.27
Brenham 1.4 NNW,-96.404,30.18,96.404,0.16,2.52,6.8,8.5,1.1,,,,,,,19.08
Brenham 7.1 W,-96.5149,30.17,96.5149,,3,8.63,8.5,0.51,,,,,,,20.64
Brenham 8.0 E,-96.2626,30.16,96.2626,0.17,2.33,7.64,7.84,1.01,0,0,0,,,,18.99
Brenham 8.2 WSW,-96.5126,30.1,96.5126,0.08,3.24,7.42,9.57,5.1,0,0,0,,,,25.41
Brenham 8.7 NW,-96.5051,30.25,96.5051,0.01,1.58,6.55,6.8,0.44,0,0,0,,,,15.38
Brenham 9.9 N,-96.4213,30.3,96.4213,0,1.68,8.4,8.06,0.66,0,0,0,,,,18.8
Briar Branch @ Campbell Road,-95.5139,29.79,-95.5139,0.88,6,15.44,6.4,1.88,0,0,,,,,30.6
Briarcliff 0.1 WSW,-98.047,30.41,98.047,,1,1.97,0.63,0.02,0,,,,,,3.62
Briarcliff 3 SW,-98.07,30.39,-98.07,Aug 25-28 12z,,,,,,,,,,,3.71
Briarcliff 4.0 S,-98.0452,30.35,98.0452,0.12,,1.89,0.87,0,0,0,0,,,,2.88
Brickhouse Gully @ Costa Rica Road,-95.4692,29.827777,-95.4691666,0.68,5.52,16.2,6.6,2.08,0,0,,,,,31.08
Bridge City 1.3 NW,-93.8675,30.04,93.8675,1.09,0.71,3.71,10.61,4.61,23.82,,,,,,44.55
BRIDGEPORT                    ,-97.77,33.21,-97.77,,,0,0,0,0,,,,,,0
Briscoe 8.1 NNE,-100.235,35.69,100.235,0,0,0,0.05,0,0,0,0,,,,0.05
Broaddus 15.3 SE,-94.1062,31.13,94.1062,0.32,0,1.75,4.05,2.86,5.67,4.36,0,,,,19.01
Bronte 5.0 NNE,-100.2725,31.95,100.2725,0.71,0.41,0.27,,,,,,,,,1.39
Bronte 8.2 S,-100.2758,31.77,100.2758,,,0.22,,,,,,,,,0.22
BROOKSHIRE               5 WSW,-96.04,29.77,-96.04,0,,,,,,,,,,,0
Brookshire 5 W,-96.04,29.77,-96.04,Aug 25-31 12z,,,,,,,,,,,27.16
Brookshire 6.9 NNW,-96.003,29.87,96.003,0.1,6.8,7.35,16.75,,0.13,0,0,,,,31.13
Brookshire Katy Drainage District @ Morrison Road,-95.9409,29.89,-95.9409,0.72,6.24,16.48,3.32,0.28,0,0,,,,,27.04
BROWN WOOD                    ,-98.96,31.68,-98.96,0.29,0,0.46,0.28,0,,,,,,,1.03
BROWNSVILLE                   ,-97.43,25.91,-97.43,0.08,0,0.08,0,,,,,,,,0.16
Brownsville 0.1 SSE,-97.4813,25.92,97.4813,,0.08,0.12,,,,,,,,,0.2
Brownsville 0.4 WSW,-97.4883,25.92,97.4883,,0.8,,,,0,,,,,,0.8
Brownsville 1.5 SW,-97.498,25.91,97.498,,,,,0,0,0,0,,,,0
Brownsville 1.5 WNW,-97.5055,25.93,97.5055,0.11,0.02,0.26,0,0,0,0,0,,,,0.39
Brownsville 1.7 NNE,-97.4711,25.95,97.4711,0.15,0,0.23,0,,0,0,0,,,,0.38
Brownsville 12.6 E,-97.2815,25.95,97.2815,0.35,0.1,0,0,0,0,0,0,,,,0.45
Brownsville 2 W,-97.48,25.92,-97.48,,0.18,,,,,,,,,,0.18
Brownsville 2.2 WNW,-97.5138,25.94,97.5138,0.15,0.02,0.38,0,0,0,0,0,,,,0.55
Brownsville 3.5 N,-97.4919,25.98,97.4919,0.17,0.02,0.13,0,0,0,0,0,,,,0.32
Brownsville 4.1 ENE,-97.4257,25.95,97.4257,0.01,0.02,0.12,,,,,,,,,0.15
Brownsville 4.3 NW,-97.5285,25.97,97.5285,0.17,0.03,0.17,0,,,0,0,,,,0.37
Brownsville 6.4 WNW,-97.5768,25.96,97.5768,0.24,0.01,0.09,0,0,0,0,0,,,,0.34
BROWNWOOD                8 N  ,-99,31.84,-99,0.3,0,0.06,0.04,0,,,,,,,0.4
Brownwood 13.7 NW,-99.1686,31.83,99.1686,0.03,0.01,0.49,0.38,0,0,0,0,,,,0.91
Brownwood 2.7 SSE,-98.9524,31.69,98.9524,,,,,,,,0,,,,0
Brownwood 6.7 ENE,-98.8697,31.76,98.8697,0,0.2,0.52,0.27,0,0,0,0,,,,0.99
Bruceville-Eddy 1.9 W,-97.28,31.31,97.28,0.31,0.2,1.11,0.4,0.01,0,0,0,,,,2.03
Bruceville-Eddy 2.0 ESE,-97.2184,31.29,97.2184,1.15,,1.24,0.43,,,,,,,,2.82
Bruceville-Eddy 4.7 SSE,-97.2301,31.24,97.2301,0.1,,,,,,,,,,,0.1
Brushy Creek,-97.74,30.51,-97.74,Aug 25-28 12z,,,,,,,,,,,2.35
Brushy Creek 2 NE,-97.72,30.53,-97.72,Aug 25-28 12z,,,,,,,,,,,2.34
Brushy Creek 2 SW,-97.76,30.49,-97.76,Aug 25-28 12z,,,,,,,,,,,4.88
Brushy Creek 2.4 SW,-97.7644,30.49,97.7644,0.05,1.23,4.25,0.96,0.02,0,,0,,,,6.51
Bryan 2.5 SSE,-96.351,30.63,96.351,0.11,1.11,7.37,7.84,0.05,0.02,0,0,,,,16.5
Bryan 2.6 SSE,-96.3423,30.64,96.3423,0.03,,,7,0.04,,,,,,,7.07
Bryan 3.5 NNW,-96.3901,30.71,96.3901,0.09,0.78,7.5,7.78,0.06,0,0,,,,,16.21
Bryan 3.8 SSW,-96.399,30.62,96.399,0.09,0.65,7.88,7.45,0.18,0,0,0,,,,16.25
Bryan 7.1 N,-96.3734,30.77,96.3734,,,,,,,,0,,,,0
BUCHANAN DAM                  ,-98.45,30.77,-98.45,0.01,0,0.13,0.14,0,,,,,,,0.28
Buchanan Dam 2 SSW,-98.44,30.71,-98.44,Aug 25-28 12z,,,,,,,,,,,0.24
Buchanan Dam 2.2 SSW,-98.4561,30.77,98.4561,0,0.02,0.2,0.15,0,0,0,0,,,,0.37
Buchanan Dam 3 WNW,-98.46,30.75,-98.46,Aug 25-28 12z,,,,,,,,,,,0.27
Buchanan Dam 3.6 SSW,-98.4639,30.75,98.4639,0,0.01,0.14,0.11,0,0,0,0,,,,0.26
Buchanan Dam 5 ENE,-98.37,30.75,-98.37,Aug 25-28 12z,,,,,,,,,,,0.77
Buchanan Dam 7.4 NNE,-98.363,30.85,98.363,0,0,0.45,0.35,0,0,0,0,,,,0.8
BUDA                          ,-97.85,30.09,-97.85,0,1.27,8.31,2.08,0.02,0,,,,,,11.68
Buda 0.7 SW,-97.8481,30.08,97.8481,0,2.63,6.77,2.14,0.02,0,0,0,,,,11.56
Buda 1 WNW,-97.86,30.09,-97.86,Aug 25-28 12z,,,,,,,,,,,6.91
Buda 1.8 W,-97.8692,30.09,97.8692,,1.16,6.17,1.43,,,,,,,,8.76
Buda 2.5 NW,-97.864,30.12,97.864,,2.5,5.34,1.64,,,,,,,,9.48
Buda 8.6 E,-97.6992,30.06,97.6992,0.27,2.03,7.23,2.72,0.01,0,0,0,,,,12.26
Buffalo Bayou @ Dairy Ashford Road,-95.6061,29.76,-95.6061,1.08,9.8,17.64,5.68,1.36,0,0,,,,,35.56
Buffalo Bayou @ Greenbusch Road,-95.807,29.74,-95.807,1.24,8.56,17.96,4.68,0.92,0,0,,,,,33.36
Buffalo Bayou @ Peek Road,-95.7674,29.72,-95.7674,1.2,6.76,17.52,5.92,1.16,0,0,,,,,32.56
Buffalo Bayou @ San Felipe Drive,-95.5056,29.75,-95.5056,0.88,6.08,14.24,7.04,1.72,0,0,,,,,29.96
Buffalo Bayou @ Shepherd Drive,-95.4087,29.76,-95.4087,0.88,7.36,15.96,6.76,2.28,0,0,,,,,33.24
Buffalo Bayou @ Turning Basin,-95.2913,29.75,-95.2913,0.84,8.76,15.84,6.88,2.56,0,0,,,,,34.88
Buffalo Bayou @ US 90,-95.827,29.79,-95.827,0.84,6.12,16.68,4.48,0.96,0,0,,,,,29.08
Buffalo Bayou @ West Beltway 8,-95.5575,29.76,-95.5575,1.16,10.08,17,7.24,1.6,0,0,,,,,37.08
Bulverde 3.3 NE,-98.4081,29.77,98.4081,,0.6,2.6,0.57,,,,,,,,3.77
Bulverde 4 NNE,-98.44,29.79,-98.44,Aug 25-28 12z,,,,,,,,,,,3.44
Bulverde 4.2 ENE,-98.3856,29.76,98.3856,0.35,0.42,3.3,0.66,0,0,0,0,,,,4.73
Buna 1.4 N,-93.963,30.46,93.963,0.05,0.06,2.53,5.98,3.19,14.1,2.46,,,,,28.37
Friendswood,-95.5666,29.75,-95.5666,Aug 25-31 12z,,,,,,,,,,,54
Bunker Hill Village 3.6 NNW,-95.5505,29.81,95.5505,0,2.38,11.2,8.27,6.51,0.55,0.02,0,,,,28.93
Bunker Hill Village 4.4 WSW,-95.6015,29.75,95.6015,0.09,3.45,13.01,9.07,9.3,0.28,,,,,,35.2
BURKETT                       ,-99.22,31.99,-99.22,,0.96,,,,,,,,,,0.96
Burkeville 11.2 NNE,-93.5993,31.15,93.5993,0.42,0,0.74,4.5,3.14,5.5,7.47,0,,,,21.77
Burleson 1.1 WNW,-97.3458,32.54,97.3458,0.01,0,0.04,0.36,0,0,0,0,,,,0.41
BURNET                        ,-98.26,30.83,-98.26,0,0.03,0.81,0.34,0,,,,,,,1.18
BURNET                        ,-98.24,30.74,-98.24,0.33,0,1,0.49,,,,,,,,1.82
BURNET                        ,-98.23,30.74,-98.23,0.07,0.04,1.01,0.42,0,,,,,,,1.54
BURNET                   1 WSW,-98.29,30.76,-98.29,0.08,0,0.96,0.44,0,,,,,,,1.48
BURNET                   6 SSE,-98.21,30.67,-98.21,0,0.01,1.03,0.56,0,,,,,,,1.6
BURNET                   6 WSW,-98.31,30.72,-98.31,0.27,0,0.57,0.27,0,,,,,,,1.11
Burnet 1.3 NE,-98.2125,30.77,98.2125,0.03,0.02,1.08,0.53,0.01,0,0,0,,,,1.67
Burnet 1.8 ENE,-98.2027,30.77,98.2027,0,,1.24,0.5,,,,,,,,1.74
Burnet 1.9 SE,-98.21,30.74,98.21,0.08,0.3,,,0,0,0,0,,,,0.38
Burnet 10.7 NW,-98.3773,30.85,98.3773,,0,0.37,0.31,,,,,,,,0.68
Burnet 2.8 WNW,-98.2748,30.77,98.2748,0.02,0.02,0.76,0.33,0,0,0,0,,,,1.13
Burnet 4.2 W,-98.2998,30.77,98.2998,0.07,0.04,0.47,0.82,0,0,0,0,,,,1.4
Burnet 5.4 NNW,-98.2778,30.83,98.2778,,,0.83,0.28,,,,,,,,1.11
Burnet 5.7 WSW,-98.323,30.74,98.323,0.38,0,0.62,0.23,0,0,,0,,,,1.23
Burnet 6.1 WNW,-98.3301,30.78,98.3301,,,,,0,0,0,0,,,,0
Burnet 8.3 WSW,-98.3533,30.7,98.3533,0,0,0.51,0,0,0,0,0,,,,0.51
Burnet 8.4 WNW,-98.347,30.83,98.347,0,,0.34,0.38,0,,0,0,,,,0.72
Burnet 8.5 NW,-98.3458,30.83,98.3458,0,0,0.49,0.23,,,,0,,,,0.72
Burnet 9.9 W,-98.3964,30.75,98.3964,,,0.24,0.17,0,,,,,,,0.41
Burton 4.4 ENE,-96.5348,30.21,96.5348,0,,11.73,9.4,0.44,0,0,0,,,,21.57
Burton 5.3 NNE,-96.5532,30.25,96.5532,0.19,,,8.16,0.13,,,,,,,8.48
Burton 6.9 SSW,-96.6238,30.08,96.6238,0.02,4.13,6.9,9.92,0.3,0,0,0,,,,21.27
Calaveras Lake 5 ENE,-98.25,29.27,-98.25,Aug 25-28 12z,,,,,,,,,,,2.01
CALLIHAM                 1 W  ,-98.35,28.45,-98.35,0.28,,,0.08,0,,,,,,,0.36
Cameron 1.5 NW,-96.9959,30.87,96.9959,0,0.54,3.42,2.81,0.03,0,0,0,,,,6.8
Cameron 10.3 ENE,-96.8114,30.9,96.8114,,0.84,3.33,3.63,0.29,0,0,0,,,,8.09
Cameron 8.2 SE,-96.872,30.78,96.872,0,0.6,6.17,2.73,0.19,0.02,0,0,,,,9.71
Camp Swift 1 NW,-97.31,30.21,-97.31,Aug 25-28 12z,,,,,,,,,,,13.14
Camp Swift 5 NNW,-97.3,30.26,-97.3,Aug 25-28 12z,,,,,,,,,,,12.18
Camp Wood 5.02 SSE,-99.9989,29.6,99.9989,0.22,0,0,0.05,0,0,0,0,,,,0.27
Camp Wood 6.5 NE,-99.9363,29.74,99.9363,0.32,0.01,0,0.09,,,,,,,,0.42
Camp Wood 6.8 NE,-99.9287,29.74,99.9287,0.28,0.02,0.03,0.13,,,,,,,,0.46
Camp Wood 7.3 NE,-99.9308,29.75,99.9308,0.45,0.03,0,0.05,,,,,,,,0.53
Cane Island Branch @ Clay Road,-95.8368,29.83,-95.8368,0.8,6.76,20.2,4.12,0.92,0,0,,,,,32.8
Canton 4.6 SSW,-95.8928,32.49,95.8928,0,0.07,0.1,0.1,0.04,0,0,0,,,,0.31
Canton 6.1 W,-95.9686,32.55,95.9686,0,0,0.09,0.02,0,0,0,0,,,,0.11
Canton 8.7 W,-96.0112,32.52,96.0112,,,,0.15,,,,,,,,0.15
Canutillo 1.2 W,-106.6267,31.93,106.6267,,0.25,,,,,,,,,,0.25
Canyon 0.2 SSW,-101.9238,34.98,101.9238,0,0,0,0,0,0,0,0,,,,0
Canyon 0.9 NNW,-101.93,34.99,101.93,0.13,,0.03,0.02,,,,,,,,0.18
Canyon 0.9 SSE,-101.9168,34.97,101.9168,0.17,0.05,,0.03,,,,,,,,0.25
Canyon 1.9 W,-101.955,34.98,101.955,0.19,0.03,0,0.02,0,0,0,0,,,,0.24
Canyon 1.9 WNW,-101.955,34.99,101.955,0.14,0,0,,,,,,,,,0.14
Canyon Lake 0.4 NE,-98.2573,29.88,98.2573,0.53,0.65,3.48,0.49,0,0,0,0,,,,5.15
Canyon Lake 0.9 NNE,-98.2556,29.89,98.2556,0.35,0.57,2.52,0.33,0.02,0,0,0,,,,3.79
Canyon Lake 1.5 WSW,-98.2856,29.87,98.2856,0.24,0.59,3.16,0.53,0,0,0,0,,,,4.52
Canyon Lake 1.7 WSW,-98.2893,29.87,98.2893,0.22,0.59,3.34,0.54,0,0,0,0,,,,4.69
Canyon Lake 1.8 W,-98.2918,29.87,98.2918,0.24,0.67,3.02,0.49,,,,,,,,4.42
Canyon Lake 2.3 ESE,-98.2253,29.86,98.2253,1.07,0.46,1.78,0.31,0,0,0,0,,,,3.62
Canyon Lake 2.3 SSE,-98.2442,29.85,98.2442,0.13,0.49,4.35,0.61,,,,,,,,5.58
Canyon Lake 2.5 W,-98.3038,29.87,98.3038,0.22,0.59,2.81,0.55,0,0,0,0,,,,4.17
Canyon Lake 2.8 N,-98.2644,29.91,98.2644,0.17,0.49,2.04,0.44,0,0,,0,,,,3.14
Canyon Lake 3.2 ESE,-98.2167,29.85,98.2167,0.64,0.33,1.08,0.48,0.02,0,0,0,,,,2.55
Canyon Lake 3.3 SW,-98.2995,29.84,98.2995,0.07,0.67,3.29,0.59,0,0,0,0,,,,4.62
Canyon Lake 4.1 E,-98.1944,29.88,98.1944,1.61,0.5,4.75,0.84,0,0,0,0,,,,7.7
Canyon Lake 4.3 NNW,-98.2971,29.93,98.2971,0.33,0.85,3.63,0.6,0,0,0,0,,,,5.41
Canyon Lake 5.3 SW,-98.3358,29.83,98.3358,0.37,0.78,3.25,0.82,,,,,,,,5.22
Canyon Lake 5.7 N,-98.2665,29.96,98.2665,0.46,,,0.66,,,,,,,,1.12
Canyon Lake 7.2 ESE,-98.1494,29.84,98.1494,0.47,0.93,4.64,0.72,0,0,0,0,,,,6.76
Canyon Lake 7.3 E,-98.1416,29.87,98.1416,1.67,0.79,5.65,0,,0,0,0,,,,8.11
Canyon Lake 8.1 NW,-98.3706,29.95,98.3706,0.59,0.51,2.85,0.58,0,0,0,0,,,,4.53
Canyon Lake Dam 2 E ,-98.09,29.87,-98.09,Aug 25-28 12z,,,,,,,,,,,4.43
Canyon Lake Dam 2 ESE,-98.1,29.86,-98.1,Aug 25-28 12z,,,,,,,,,,,5.82
CARLOS                   3 NE ,-96.03,30.63,-96.03,,,6.04,,,,,,,,,6.04
Carlsbad 2.4 WNW,-100.6798,31.62,100.6798,0.02,,0.07,,,,,,,,,0.09
Carmine,-96.69,30.15,-96.69,Aug 25-28 12z,,,,,,,,,,,25.17
CARMINE                  1 SSW,-96.69,30.14,-96.69,0,4.05,10.24,10.97,0,0,,,,,,25.26
Carmine 3.1 WNW,-96.7394,30.16,96.7394,0,3.93,9.09,9.42,0.54,0,0,0,,,,22.98
Carpenters Bayou @ I-10,-95.149,29.77,-95.149,0.72,6.72,18.24,8.84,4.92,0,0,,,,,39.44
Carpenters Bayou @ US 90,-95.1605,29.84,-95.1605,0.56,6.28,17.92,6.76,4.12,0.04,0,,,,,35.68
Carpenters Bayou @ Wallisville Road,-95.1584,29.81,-95.1584,0.68,5.96,18.4,7.92,4.48,0,0,,,,,37.44
CARRIZO SPRINGS               ,-99.87,28.49,-99.87,0,0,0,0,,,,,,,,0
Carrizo Springs 3.0 NNE,-99.8354,28.56,99.8354,0,0,0,0,0,0,0,0,,,,0
Carrollton 2.0 NNE,-96.8857,33.02,96.8857,,,0.05,0.44,,,,,,,,0.49
Carrollton 2.8 SSE,-96.8763,32.95,96.8763,0,0,0.05,0.17,0.03,0,0,0,,,,0.25
Carta Valley 4.0 SSE,-100.6568,29.73,100.6568,,,,0,0,0,0,0,,,,0
Carta Valley 8 SE,-100.57,29.69,-100.57,Aug 25-28 12z,,,,,,,,,,,0.08
CARTHAGE                      ,-94.35,32.14,-94.35,,,,0.71,0.01,0.57,1.53,0,,,,2.82
CASTELL                       ,-98.82,30.72,-98.82,0.02,0,0.13,0.12,0,,,,,,,0.27
CASTELL                  4 SSE,-98.94,30.64,-98.94,0,0,0.25,0.27,0,,,,,,,0.52
Castell 10 SW,-99.09,30.57,-99.09,Aug 25-28 12z,,,,,,,,,,,1.52
Castell 3 WSW,-98.99,30.69,-98.99,Aug 25-28 12z,,,,,,,,,,,0.39
Castell 8 SW,-99.06,30.6,-99.06,Aug 25-28 12z,,,,,,,,,,,1.26
Castle Hills 0.7 NW,-98.5276,29.53,98.5276,1.13,0.41,1.07,0.52,,,,,,,,3.13
Castle Hills 1.9 NE,-98.4947,29.54,98.4947,0.38,0.64,1.09,0.15,0,0,0,0,,,,2.26
Castroville 4.0 SW,-98.9146,29.3,98.9146,,0.07,0.17,,,,,,,,,0.24
Castroville 7.0 NE,-98.8045,29.43,98.8045,0,0.09,0.26,0.01,0,0,0,0,,,,0.36
Castroville 7.0 NNE,-98.8147,29.43,98.8147,0,0.08,0.22,0.01,0,0,0,0,,,,0.31
Cat Spring 1.4 N,-96.3264,29.87,96.3264,,4.91,6.08,10.32,1.06,,,,,,,22.37
Cat Spring 3.8 N,-96.331,29.88,96.331,0.12,5,6.41,10.8,1,0,0,0,,,,23.33
Cattle Walk @ Ditch 550,-94.0978,29.77,-94.0978,1.22,2.36,5.04,7.09,19.96,0.63,0,,,,,36.3
Cedar Bayou @ SH 146,-94.9168,29.77,-94.9168,0.8,3.52,20.92,5.92,5.32,0,0,,,,,36.48
Cedar Bayou @ US 90,-94.9859,29.97,-94.9859,0.92,4.92,21.56,5.48,5,0,0,,,,,37.88
Cedar Creek 1.0 ENE,-97.4857,30.09,97.4857,0.75,1.87,9.4,2.67,0.14,0,0,0,,,,14.83
Cedar Creek 3 W,-97.55,30.09,-97.55,Aug 25-28 12z,,,,,,,,,,,14.38
Cedar Creek 5.3 SW,-97.5483,30.02,97.5483,0.54,,,,,0,0,0,,,,0.54
Cedar Creek 5.6 ESE,-97.4206,30.05,97.4206,0.86,2.17,11.6,3.11,0.16,0,0,0,,,,17.9
CEDAR HILL               3 NW ,-96.99,32.61,-96.99,,,0.04,1.02,0.09,0.01,,,,,,1.16
Cedar Hill 1.8 S,-96.9574,32.55,96.9574,0.01,0.23,0.08,0.56,0,0,0,0,,,,0.88
Cedar Hill 2.4 NNW,-96.9712,32.61,96.9712,,,,0.94,0.1,,,0,,,,1.04
Cedar Park,-97.82,30.51,-97.82,Aug 25-28 12z,,,,,,,,,,,4.28
Cedar Park,-97.82,30.51,-97.82,Aug 25-28 12z,,,,,,,,,,,3.73
Cedar Park 1 SSE,-97.81,30.49,-97.81,Aug 25-28 12z,,,,,,,,,,,4.86
Cedar Park 1 SSW,-97.83,30.49,-97.83,Aug 25-28 12z,,,,,,,,,,,4.43
Cedar Park 1.0 ESE,-97.8163,30.51,97.8163,0.27,1.25,3.18,0.96,,,,,,,,5.66
Cedar Park 1.3 S,-97.8329,30.5,97.8329,0.27,1.93,3.05,0.09,0,,,,,,,5.34
Cedar Park 2.4 WNW,-97.8677,30.53,97.8677,0.06,0.77,3.32,0.89,0.03,0,,,,,,5.07
Cedar Park 2.7 SSW,-97.8474,30.48,97.8474,0.37,1.9,3.57,0.93,0.02,0,0,0,,,,6.79
Cedar Park 3 SW,-97.85,30.48,-97.85,Aug 25-28 12z,,,,,,,,,,,4.75
Cedar Park 3 SW,-97.85,30.48,-97.85,Aug 25-28 12z,,,,,,,,,,,6.03
Cedar Park 4.6 E,-97.7529,30.52,97.7529,,0.73,3.5,0.85,,,,,,,,5.08
CEDAR POINT                   ,-98.45,30.87,-98.45,0,0.06,0.11,0.12,0,,,,,,,0.29
Celina 4.4 WSW,-96.855,33.3,96.855,0.01,0,0.04,0,0,0,0,0,,,,0.05
CENTER                        ,-94.16,31.81,-94.16,0,0,0.25,1.44,,1.52,2.74,0,,,,5.95
Center 0.6 NW,-94.185,31.8,94.185,,,0.26,1.49,0.82,1.61,2.44,,,,,6.62
Center Point 0.5 SE,-99.0305,29.93,99.0305,0.11,0.04,0.46,0,0,0,0,0,,,,0.61
Center Point 2.2 NNE,-99.0234,29.96,99.0234,0,0,0.57,0,0,0,0,0,,,,0.57
Center Point 2.4 ESE,-98.9994,29.93,98.9994,,0.27,0.27,0,0,0,0,0,,,,0.54
CENTERVILLE                   ,-95.97,31.26,-95.97,0,,2.2,2,,0,0,,,,,4.2
Central Gardens 5 NW,-94.08,30.04,-94.08,Aug 24-Sep 1 12z,,,,,,,,,,,46.42
CHAPMAN RANCH                 ,-97.45,27.58,-97.45,0.94,,,0.05,0.02,0,,,,,,1.01
Chappell Hill 1.0 NW,-96.263,30.16,96.263,0.19,2.33,7.67,7.35,1,0,0,0,,,,18.54
Chappell Hill 1.8 N,-96.2534,30.17,96.2534,0.63,2.35,8.59,8.58,0.98,0,,,,,,21.13
Charlotte 0.6 SW,-98.7072,28.85,98.7072,0,0.2,0.5,0,0,0,0,0,,,,0.7
CHEAPSIDE                     ,-97.35,29.31,-97.35,0,,8.54,3.52,0.05,0,,,,,,12.11
CHEROKEE                 2 NNW,-98.72,31.02,-98.72,0,0,0.12,0.12,0,,,,,,,0.24
CHEROKEE                 4 E  ,-98.64,30.98,-98.64,0,0,0.16,0.19,0.01,,,,,,,0.36
CHEROKEE                 4 SSE,-98.68,30.92,-98.68,0,0,0.14,0.13,0,,,,,,,0.27
CHEROKEE                 6 WSW,-98.81,30.95,-98.81,0,0,0.16,0.26,0,,,,,,,0.42
CHEROKEE                 8 NNE,-98.6,31.06,-98.6,0,0,0.09,0.27,0.01,,,,,,,0.37
CHEROKEE                10 NW ,-98.58,31.03,-98.58,0,0,0.13,0.26,0.01,,,,,,,0.4
CHEROKEE                10 WNW,-98.87,31,-98.87,0.08,0,0.21,0.4,0.01,,,,,,,0.7
Cherokee Fema Laydown Yard,-94.1345,30.09,-94.1345,0.4,2.6,10.86,6.81,18.07,5.91,0,,,,,44.65
Chigger Creek @ Windsong Lane,-95.2235,29.5,-95.2235,3.56,9.88,9.56,11.04,4.32,0,0,,,,,38.36
Childress 2.3 E,-100.2086,34.42,100.2086,1.49,0,,,,,,,,,,1.49
Childress 6.0 E,-100.1437,34.42,100.1437,0.66,,0,0,0,0,0,,,,,0.66
China 17 SSE,-94.23,29.82,-94.23,Aug 24-Sep 1 12z,,,,,,,,,,,40.55
China 2 NE,-94.31,30.07,-94.31,Aug 24-Sep 1 12z,,,,,,,,,,,39.8
China 2 S,-94.33,30.02,-94.33,Aug 24-Sep 1 12z,,,,,,,,,,,47.44
China 5 ESE,-94.26,30.02,-94.26,Aug 24-Sep 1 12z,,,,,,,,,,,44.49
China Grove 3 E,-98.3,29.39,-98.3,Aug 25-28 12z,,,,,,,,,,,2.61
China Grove 4.6 WSW,-98.4217,29.38,98.4217,0.05,0.32,1.37,0.32,0,0,0,0,,,,2.06
China Spring 2.9 NNW,-97.3282,31.69,97.3282,0.77,0,0.3,,,,,,,,,1.07
China Spring 3.3 WNW,-97.3618,31.67,97.3618,1.06,0.01,0.25,0.05,0.01,,0,0,,,,1.38
Choke Canyon Dam North Side,-98.2462,28.47,98.2462,0.88,2.38,0.85,0.05,0,0,0,0,,,,4.16
Cibolo 2.4 NNW,-98.2533,29.6,98.2533,,,,,,,,0,,,,0
Cibolo 3.9 N,-98.2205,29.63,98.2205,,0.53,1.54,0.26,0.01,0,0,,,,,2.34
Circle D-KC Estates 3 WSW,-97.27,30.15,-97.27,Aug 25-28 12z,,,,,,,,,,,18.76
Circle D-KC Estates 3.6 ESE,-97.1753,30.14,97.1753,0.16,4.42,13.44,5.49,0,0,0,0,,,,23.51
Cisco 10.5 NW,-99.1161,32.48,99.1161,1.84,0.08,0.05,0.02,0,0,0,0,,,,1.99
Cisco 4.1 N,-98.9866,32.44,98.9866,1.61,0.11,0.12,0.06,0,0,0,0,,,,1.9
Cistern 4 SE/Fayette County,-97.19,29.79,-97.19,Aug 25-28 12z,,,,,,,,,,,24.25
Clam Lake Road @ Ten Mile Cut Bridge,-94.0806,29.69,-94.0806,1.73,1.93,3.94,4.52,15.56,0.31,0,,,,,27.99
CLARKSVILLE                   ,-95.17,33.62,-95.17,,,0,0,0,0,0,,,,,0
Clear Creek @ Bay Area Boulevard,-95.1598,29.5,-95.1598,2.12,12.72,14.08,11.76,3.96,0,0,,,,,44.64
Clear Creek @ Country Club Drive,-95.252,29.56,-95.252,1.8,10,10.24,11.92,3.64,0,0,,,,,37.6
Clear Creek @ FM 528,-95.1791,29.52,-95.1791,1.84,12.44,14.52,11.16,3.36,0,0,,,,,43.32
Clear Creek @ I-45,-95.1174,29.51,-95.1174,2.12,11.84,18.96,10.84,4.36,0.08,0,,,,,48.2
Clear Creek @ Mykawa Road,-95.2973,29.6,-95.2973,1.76,9.04,10.96,9.24,3.56,0,0,,,,,34.56
Clear Creek @ Nassau Bay,-95.0912,29.53,-95.0912,0.8,7.04,18.8,7.8,2.56,0.04,0,,,,,37.04
Clear Creek @ SH 288,-95.386,29.59,-95.386,1.72,3.6,11.08,10.2,2.96,0,0,,,,,29.56
Clear Lake  , -95.135354,29.56, -95.135354,1.57,11.15,17.85,13.42,4.15,,,,,,,48.14
Clear Lake 2nd Outlet @ SH 146,-95.0255,29.55,-95.0255,1.32,5.4,17.2,7.48,3.28,0,0,,,,,34.68
Cleburne 1.5 S,-97.4062,32.33,97.4062,2.05,0,0.12,0.9,,0,,,,,,3.07
Cleburne 3.3 SW,-97.448,32.32,97.448,1.5,,0.1,0.75,,,,,,,,2.35
Cleburne 4.8 NNE,-97.3707,32.41,97.3707,0.03,0,0.08,0.16,0,0,0,0,,,,0.27
Cleburne 5.8 E,-97.307,32.34,97.307,0.21,0,0.09,0.48,0.4,0,,,,,,1.18
Cleveland,-95.0083,30.36,-95.0083,,,,,,,,,,,,25.76
CLEVELAND                     ,-95.09,30.36,-95.09,,,,14.9,,,,,,,,14.9
Cleveland 0.9 SW,-95.0889,30.33,95.0889,,,11.05,9.9,2.14,0.94,,,,,,24.03
Cleveland 3.6 S,-95.082,30.29,95.082,0,1,15.43,13.53,4.67,1.79,0,0,,,,36.42
Cleveland 5.0 S,-95.0688,30.27,95.0688,0.11,1.76,12.79,11.8,4.19,,,,,,,30.65
CLICK                         ,-98.54,30.55,-98.54,0.08,0.02,1.06,0.12,0,,,,,,,1.28
Clifton 3.4 SSE,-97.563,31.73,97.563,1.35,0.19,0.1,0.11,,0,0,,,,,1.75
Cloverleaf 1.7 W,-95.2015,29.79,95.2015,0.03,1.32,17.98,10.6,8.29,1.7,0,0,,,,39.92
Cloverleaf 2 SE,-95.15,29.77,-95.15,Aug 25-31 12z,,,,,,,,,,,38.9
Clyde 0.9 W,-99.5135,32.4,99.5135,0.48,2.6,,,,,,,,,,3.08
Clyde 4.4 SSW,-99.5144,32.34,99.5144,0,0,0,,,,0,0,,,,0
COLDSPRING               7 NE ,-95.15,30.67,-95.15,0,,,,,,,,,,,0
Cole Creek @ Deihl Road,-95.4878,29.8511111,-95.48777777,0.76,5.76,16.36,6.92,2.2,0,0,,,,,32
COLEMAN                       ,-99.42,31.82,-99.42,,,,0.7,,,,,,,,0.7
COLEMAN                  8 N  ,-99.57,31.85,-99.57,1.17,0.49,0.15,0.02,,,,,,,,1.83
COLEMAN                 26 SW ,-99.66,31.51,-99.66,0.02,0.06,0.27,0.23,,,,,,,,0.58
COLLEGE STATION               ,-96.36,30.59,-96.36,0,0.65,6.47,6.75,1.87,0,0,,,,,15.74
College Station 0.1 WNW,-96.3145,30.6,96.3145,,1,9,7,,,,,,,,17
College Station 0.8 W,-96.3257,30.6,96.3257,0,0.99,9.52,6.95,0.26,0,0,0,,,,17.72
College Station 1.0 WNW,-96.3284,30.6,96.3284,0,5.05,8.87,3.32,0.06,0,0,0,,,,17.3
College Station 1.6 S,-96.3146,30.58,96.3146,,2.98,,,,,,,,,,2.98
College Station 1.7 NNW,-96.3199,30.62,96.3199,0,0.75,6.54,4.74,0.24,0.02,,,,,,12.29
College Station 2.0 SSE,-96.3002,30.57,96.3002,,2.01,8.27,8.11,0.33,,,,,,,18.72
College Station 4.5 SW,-96.3711,30.56,96.3711,0,0.75,10.45,8.44,0.34,0,0,0,,,,19.98
College Station 6.4 ENE,-96.2089,30.63,96.2089,0.36,0.81,8.8,8.52,0.38,,,,,,,18.87
COLLINSVILLE                  ,-96.81,33.53,-96.81,,,0,0,0,0,,,,,,0
Colmesneil 11.6 ESE,-94.2367,30.86,94.2367,0,0.01,4.65,6.38,4.55,7.12,5.34,0,,,,28.05
Colmesneil 2.3 SE,-94.3959,30.89,94.3959,,,3.2,6.1,3.78,4.7,5.36,,,,,23.14
COLUMBUS                      ,-96.54,29.71,-96.54,0,6.28,6.68,7.9,1.35,0.01,,,,,,22.22
Columbus 3.2 WSW,-96.5975,29.68,96.5975,0.18,4.95,6.84,8.55,0.87,0,0,0,,,,21.39
Comanche 12.2 NW,-98.7593,32.02,98.7593,0,0.13,0.31,0.11,0,0,0,0,,,,0.55
Comanche 7.0 ENE,-98.4926,31.93,98.4926,0,0,0.13,0.5,0.12,0,0,0,,,,0.75
Comfort,-98.9,29.97,-98.9,Aug 25-28 12z,,,,,,,,,,,0.6
COMFORT                       ,-98.89,29.96,-98.89,,,,0.07,,,,,,,,0.07
Comfort 0.9 WSW,-98.9172,29.97,98.9172,0,0.18,0.52,0.07,0,0,0,0,,,,0.77
Comfort 11.5 ENE,-98.7353,30.06,98.7353,0.04,0.12,1.21,0.18,0,0,0,0,,,,1.55
Comfort 2.6 N,-98.9023,30.01,98.9023,0,0,0.7,0.14,,,,,,,,0.84
Comfort 4.4 W,-98.9755,29.96,98.9755,0,0.04,0.48,0.02,0,0,0,0,,,,0.54
Comfort 7.0 ENE,-98.7915,30,98.7915,0,0.24,0.74,0.12,,,,0,,,,1.1
Comfort 8.0 NNE,-98.8433,30.08,98.8433,,0.04,1.09,,,,,,,,,1.13
Comfort 8.2 ENE,-98.7744,30.01,98.7744,,0.34,0.5,0,,0,0,,,,,0.84
COMMERCE                      ,-95.92,33.27,-95.92,,,0.02,0,0,0.14,0,,,,,0.16
Commerce 6.1 NW,-95.9732,33.3,95.9732,,0,0.02,0,0.02,0,,,,,,0.04
Comstock 29.7 NW,-101.4083,30.06,101.4083,0,0,0,0,0,0,0,0,,,,0
Comstock 8.5 WNW (Seminole Canyon),-101.3133,29.7,101.3133,,,,0.15,,,,,,,,0.15
CONROE                   3 NE ,-95.41,30.35,-95.41,0,0.35,9.15,9.06,2.15,0.73,0,,,,,21.44
Conroe 0.7 E,-95.4596,30.32,95.4596,0,1.24,9.4,8.75,2.68,0.48,0,0,,,,22.55
Conroe 2.1 SSW,-95.4842,30.29,95.4842,0,3.17,10.75,5.93,10.61,0.76,0,0,,,,31.22
Converse 1.1 ESE,-98.2962,29.51,98.2962,,,2.51,0.41,,,,,,,,2.92
Converse 1.2 SSE,-98.3044,29.5,98.3044,0,0.48,1.83,0.36,0,0,0,0,,,,2.67
Converse 1.6 NW,-98.3312,29.53,98.3312,0,0.33,2.48,0.48,0,0,0,0,,,,3.29
Converse 1.8 S,-98.3157,29.49,98.3157,0,0.36,1.77,0.43,0,0,0,0,,,,2.56
COOPER                        ,-95.59,33.36,-95.59,,,0.05,0,0,0.04,0.01,,,,,0.1
COOPER                        ,-95.59,33.47,-95.59,,,0.03,0,0,0.1,0,,,,,0.13
Copper Canyon 1.1 SW,-97.1119,33.09,97.1119,0,,,,0,0,0,0,,,,0
Copperas Cove 0.8 ESE,-97.89,31.11,97.89,,,0.9,0.66,,,,,,,,1.56
CORDELE                  4 E  ,-96.55,29.16,-96.55,,,0,,,,,,,,,0
CORPUS CHRISTI                ,-97.51,27.78,-97.51,0.61,,0.77,0.02,0.06,0,,,,,,1.46
CORPUS CHRISTI                ,-97.28,27.7,-97.28,0,,,,,0,,,,,,0
CORPUS CHRISTI          12 W  ,-97.56,27.78,-97.56,0.62,3.25,0.98,,0.11,,,,,,,4.96
Corpus Christi 3.6 S,-97.2896,27.65,97.2896,3.5,2.5,0.23,,,,,,,,,6.23
Corpus Christi 4.8 SSE,-97.3799,27.73,97.3799,0.39,,,,0,0,0,0,,,,0.39
Corpus Christi 4.8 W,-97.4706,27.81,97.4706,0.35,2.55,0.42,0.09,0.03,0,0,0,,,,3.44
Corpus Christi 6.4 WSW,-97.3951,27.69,97.3951,0.52,5.54,0.4,0.07,0,0,0,0,,,,6.53
Corpus Christi 6.9 SE,-97.2261,27.63,97.2261,0.24,,,,0.2,0,0,0,,,,0.44
Corpus Christi 8.0 NW,-97.399,27.77,97.399,,,,,0.02,0,0,0,,,,0.02
Corpus Christi 8.3 SSE,-97.2397,27.59,97.2397,,,,,0.01,0,0,0,,,,0.01
Corpus Christi 9.0 SSE,-97.2247,27.59,97.2247,,,,,0,0,0,0,,,,0
Corpus Christi 9.1 NW,-97.3932,27.8,97.3932,0,,,,,0,0,0,,,,0
CORSICANA                     ,-96.4,32.03,-96.4,,,0.32,0,,0,0,,,,,0.32
CORSICANA                     ,-96.47,32.09,-96.47,,,0.27,0.15,0,0,0,,,,,0.42
Corsicana 4.3 WSW,-96.5329,32.06,96.5329,0,0.05,0.3,0.03,0,0,0,0,,,,0.38
Cottonwood 1.3 NE,-96.379,32.47,96.379,0.05,0.01,0.03,0.02,0,0,0,0,,,,0.11
Cottonwood Shores,-98.32,30.56,-98.32,Aug 25-28 12z,,,,,,,,,,,1.08
COTULLA                       ,-99.22,28.46,-99.22,0,0,0.09,0,,,,,,,,0.09
Cotulla 1.6 NE,-99.2184,28.45,99.2184,0,0,0.11,0,0,0,0,0,,,,0.11
Cotulla 9.7 NNE,-99.1535,28.55,99.1535,,,0.28,,,,,,,,,0.28
Coupland 5 WSW,-97.45,30.44,-97.45,Aug 25-28 12z,,,,,,,,,,,9.68
Coupland 6.5 ESE,-97.2882,30.42,97.2882,,1.49,5.81,2.55,0.07,,,,,,,9.92
Cowart Creek @ Baker Road,-95.2225,29.51,-95.2225,2.56,9.64,8.36,11.56,4,0,0,,,,,36.12
Craigen Road @ Taylors Bayou D-500,-94.2572,29.88,-94.2572,0.71,3.46,8.35,6.85,25.19,2.72,0,,,,,47.28
CRAWFORD                      ,-97.45,31.53,-97.45,0.48,0,0.45,0.12,,0,,,,,,1.05
Crawford 7.5 ENE,-97.3243,31.58,97.3243,0.63,0.02,0.5,0.12,0,0,0,0,,,,1.27
Creedmoor 1.5 NNW,-97.7493,30.11,97.7493,0.02,2.46,7.29,2.38,,,0.01,,,,,12.16
Creedmoor 2.6 N,-97.7359,30.13,97.7359,,2.19,7.22,2.35,,,,,,,,11.76
CRESSON                       ,-97.62,32.53,-97.62,,,,1,0.1,,,,,,,1.1
CROCKETT                      ,-95.45,31.3,-95.45,0.08,0,2.66,2.45,0.22,0.04,0,,,,,5.45
Crockett 1.8 NNE,-95.4494,31.34,95.4494,0.03,0,2.2,2.16,0.19,0.03,0.01,0,,,,4.62
CROSBY                   1 N  ,-95.08,29.9,-95.08,,,,,8.44,,,,,,,8.44
Crosby 2 W,-95.09,29.91,-95.09,Aug 25-31 12z,,,,,,,,,,,37.5
CROSBY TX/CEDAR BAYOU,-94.99,29.97,-94.99,,,,,6.68,,,,,,,6.68
CROSBYTON                     ,-101.09,33.46,-101.09,,,,0,,,,,,,,0
CROSBYTON                1 SW ,-101.24,33.59,-101.24,,,0.04,0,,,,,,,,0.04
CROSS                    9 N  ,-98.57,28.6,-98.57,0,0.39,0.61,0.05,0,,,,,,,1.05
Cross 1.7 NNW,-98.5521,28.63,98.5521,0,0.13,0.36,0,0,0,0,0,,,,0.49
Cross Mountain 1.2 N,-98.6625,29.66,98.6625,,0.24,1.04,0.36,,,,,,,,1.64
Cross Mountain 2.1 N,-98.6535,29.67,98.6535,0,0.25,0.98,0.02,0,0,0,0,,,,1.25
Cross Plains 6.5 WNW,-99.267,32.16,99.267,0.12,0.01,0.06,,,0,0,0,,,,0.19
CROWELL                  1 NNW,-99.73,33.99,-99.73,,,,0,,,,,,,,0
Crowell 10.5 E,-99.5408,33.98,99.5408,0,0,0,0,0,0,0,0,,,,0
Crowley 1.4 SSE,-97.3526,32.56,97.3526,,,0.22,,,,,,,,,0.22
Crystal Beach 3.7 ENE,-94.5803,29.48,94.5803,1.07,,,,,,0,,,,,1.07
Crystal City 0.5 ESE,-99.8185,28.69,99.8185,0.15,0.17,0.02,0.02,0,,,0,,,,0.36
Crystal City 0.5 S,-99.8256,28.68,99.8256,0.16,0.15,0.04,,,,,,,,,0.35
Crystal City 0.7 WNW,-99.8357,28.69,99.8357,0.24,0.19,0.03,0,,,,0,,,,0.46
Crystal City 9.2 E,-99.6738,28.68,99.6738,0,0.4,0,0.01,0,0,0,0,,,,0.41
Cuero 0.4 SSW,-97.2892,29.09,97.2892,,,14,,,,,,,,,14
Cuero 1.2 SSE,-97.2786,29.08,97.2786,,,,,,,0,,,,,0
Cuero 2 W,-97.32,29.09,-97.32,Aug 25-28 12z,,,,,,,,,,,5.28
Cuero 2.5 ESE,-97.2519,29.08,97.2519,0.07,4.9,3.49,2.5,0.13,0,0,0.01,,,,11.1
Cuero 2.6 ESE,-97.2499,29.08,97.2499,0.09,4.55,3.16,2.5,0.16,0,0,0.01,,,,10.47
Cuero 2.7 ESE,-97.2492,29.08,97.2492,0.07,4.9,3.73,2.25,0.2,0.01,0,0.01,,,,11.17
Cuero 7.3 SSW,-97.34,29,97.34,0.76,,5.97,1.24,0.08,0,0,0,,,,8.05
Cuero 8.4 S,-97.2922,28.97,97.2922,0.41,,10.52,1.43,,,0,,,,,12.36
Cuero 8.4 S,-97.2788,28.97,97.2788,,7.41,3.55,1.94,0.32,0,0,0,,,,13.22
Cumby 1.5 N,-95.843,33.16,95.843,0,0.02,,0,0,0,0,0,,,,0.02
Cumby 5.6 SSE,-95.8116,33.06,95.8116,0,0.03,0,0.02,0,0,0,0,,,,0.05
CYPRESS                       ,-95.7,30.02,-95.7,,,,,,0.36,,,,,,0.36
Cypress 3.2 ESE,-95.6463,29.96,95.6463,0.03,2.03,11.46,8.79,5.14,0.38,0,0,,,,27.83
Cypress Creek @ Cypresswood Drive,-95.33,30.03,-95.33,0.32,7.88,18.88,5,3.08,0,0,,,,,35.16
Cypress Creek @ Eldridge Parkway N,-95.6076,29.97,-95.6076,0.32,5.48,13.08,4.16,1.64,0,0,,,,,24.68
Cypress Creek @ Huffmeister Road,-95.6312,29.96,-95.6312,0.44,7.32,14.8,4.36,1.72,0,0,,,,,28.64
Cypress Creek @ I-45,-95.4287,30.04,-95.4287,0.28,7.72,16.44,4.56,2.08,0,0,,,,,31.08
Cypress Creek @ Inverness Forest,-95.4099,30.03,-95.4099,0.28,7.08,16.6,4.96,2.36,0,0,,,,,31.28
Cypress Creek @ Katy-Hockley Road,-95.8083,29.95,-95.8083,0.56,9.12,18.08,3.36,0.76,0,0,,,,,31.88
Cypress Creek @ Kuykendahl Road,-95.4759,30.02,-95.4759,0.24,7.36,15.84,4.28,1.84,0,0,,,,,29.56
Cypress Creek @ SH 249,-95.5699,29.99,-95.5699,0.36,6.6,16.04,4.4,1.6,0,0,,,,,29
Cypress creek @ Sharp Road,-95.8402,29.92,-95.8402,0.72,8.2,19.88,3.48,0.72,0,0,,,,,33
Cypress Creek @ Stuebner-Airline Road,-95.5116,30.01,-95.5116,0.32,7.2,15.96,4.88,1.84,0,0,,,,,30.2
CYPRESS MILL                  ,-98.19,30.38,-98.19,0.22,0.37,2.01,0.78,0,,,,,,,3.38
CYPRESS MILL             7 SSE,-98.24,30.28,-98.24,0.69,0.5,2.42,1.14,0,,,,,,,4.75
Cypress Mill 3 ESE,-98.22,30.37,-98.22,Aug 25-28 12z,,,,,,,,,,,3.15
Cypress Mills 3.1 SE,-98.2188,30.34,98.2188,0.36,0.47,2.73,0.73,0,,,,,,,4.29
Daisetta NNW 8219,-96.52,30.13,-96.52,Aug 25-31 12z,,,,,,,,,,,30.58
Dale 4.4 SE,-97.5189,29.88,97.5189,0.2,2.11,10.79,3.09,0.01,,,,,,,16.2
Dale 7.3 SE,-97.4714,29.86,97.4714,0.67,1.89,10.81,4.2,0.06,0,0,0,,,,17.63
Dale 7.6 N,-97.5696,30.04,97.5696,0.29,1.93,9.59,2.76,0.1,0,0,0,,,,14.67
Dalhart 8.1 W,-102.6567,36.08,102.6567,0,0,0,0.13,0,0,0,0,,,,0.13
DALLAS                        ,-96.85,32.85,-96.85,,,0,0.74,0.32,0,,,,,,1.06
DALLAS                        ,-96.87,32.68,-96.87,,,0.03,0.15,0.02,,,,,,,0.2
Dallas 1.0 NNE,-96.7591,32.81,96.7591,0,0,0.02,0.45,0.16,0,0,0,,,,0.63
Dallas 2.1 NNE,-96.7492,32.82,96.7492,0,0,0,0.25,0.35,,,0,,,,0.6
Dallas 2.7 WNW,-96.8035,32.82,96.8035,0,0,0,0.2,0.04,0,0,0,,,,0.24
Dallas 7.2 SW,-96.8383,32.71,96.8383,0.05,0,0.06,0.04,0.03,0,0,0,,,,0.18
DALLAS-FORT WORTH             ,-97.04,32.9,-97.04,,,0.05,0.46,,0,,,,,,0.51
DANEVANG                 1 W  ,-96.23,29.05,-96.23,0.97,5.42,3.39,3.93,,0,0,,,,,13.71
Danevang 2 W,-96.23,29.05,-96.23,Aug 25-31 12z,,,,,,,,,,,10.8
DAWSON                   5 NNE,-96.69,31.96,-96.69,0,0,0.51,0.02,0,0,,,,,,0.53
Dayton 0.2 E,-94.8914,30.05,94.8914,0,2.45,25,12.27,6.36,3.15,0.08,0,,,,49.31
Dayton 1.1 SE,-94.8815,30.04,94.8815,0,2.6,,,,,0.08,0,,,,2.68
DE KALB                 13 N  ,-94.69,33.69,-94.69,,,0.01,0,0,0,0,,,,,0.01
De Kalb 0.1 SSW,-94.6173,33.51,94.6173,0,0,0.03,0,0,0,,0,,,,0.03
De Leon 4.5 W,-98.613,32.1,98.613,0.26,0.2,0.1,0.05,0,0,0,0,,,,0.61
Dean-Walker Ranch,-105.1906,31.09,105.1906,,,,,,,0,,,,,0
DECATUR                       ,-97.6,33.23,-97.6,,,,0,0,0,,,,,,0
Decatur 4.1 W,-97.662,33.22,97.662,1.61,,,,,,,,,,,1.61
Decatur 8.4 S,-97.5908,33.11,97.5908,1.69,0,0.23,,,,,,,,,1.92
DEL RIO                       ,-100.92,29.37,-100.92,,,0,0,,,,,,,,0
DEL RIO                  2 NW ,-100.91,29.42,-100.91,,,0,0.01,,,,,,,,0.01
Del Rio 5.7 NW,-100.9536,29.44,100.9536,0.02,0,0,0.05,0,0,0,0,,,,0.07
Del Rio 7.8 NNW,-100.9413,29.48,100.9413,0,0,0,0.04,0,0,0,0,,,,0.04
DEL VALLE                3 SW ,-97.69,30.18,-97.69,0.01,1.25,6.66,1.84,0.01,0,,,,,,9.77
Dell City 1.4 SW,-105.2181,31.92,105.2181,0.15,0,0,0,0,0,0,0,,,,0.15
DENISON                       ,-96.57,33.82,-96.57,,,0,0,0,0,,,,,,0
Denison 0.8 ENE,-96.5514,33.76,96.5514,1.07,0.01,,,,,0,0,,,,1.08
Denison 4.9 SW,-96.6244,33.71,96.6244,,0.27,0,0,0,,0,0,,,,0.27
Dennis 1.4 SW,-97.9454,32.61,97.9454,1.36,0.04,0.26,0.23,0,0,0,0,,,,1.89
DENTON                        ,-97.2,33.2,-97.2,,,0.02,0.01,,0,,,,,,0.03
DENTON                   2 SE ,-97.11,33.2,-97.11,,,,0.04,,,,,,,,0.04
DeSoto 2.2 ENE,-96.8279,32.61,96.8279,0,0.01,0.04,1.48,0,0,0,0,,,,1.53
Detroit 14.9 N,-95.2496,33.88,95.2496,0,0,0,0,0.05,0,0,0,,,,0.05
Devine 0.4 S,-98.9053,29.14,98.9053,0,0.22,0.11,0.04,0,0,0,0,,,,0.37
Devine 4 WNW,-98.96,29.16,-98.96,Aug 25-28 12z,,,,,,,,,,,0.42
Devine 6.4 N,-98.9222,29.24,98.9222,0.36,0.1,0.19,0.1,,,,,,,,0.75
Devine 6.7 NNE,-98.8686,29.24,98.8686,0,0.15,0.21,0,0,0,0,0,,,,0.36
D'Hanis 0.4 NNE,-99.2804,29.34,99.2804,0,0.05,0.07,0,0,0,0,0,,,,0.12
D'Hanis 2.4 NNE,-99.2611,29.36,99.2611,0,0.12,0.07,0,0,0,0,0,,,,0.19
D'Hanis 3.5 WSW,-99.3378,29.33,99.3378,0,0.07,0.03,0,0,0,0,0,,,,0.1
DIALVILLE                2 W  ,-95.26,31.91,-95.26,,,0.65,,0,,,,,,,0.65
Dickens 2.3 SW,-100.8689,33.6,100.8689,0,0,0,0,0.02,0,0,0,,,,0.02
Dickens 2.4 SW,-100.8619,33.59,100.8619,0,0.23,0,0,0,0,0,0,,,,0.23
Dickinson 0.5 NNE,-95.0643,29.46,95.0643,0.62,3.38,,,,,,,,,,4
Dickinson 1.4 W,-95.0889,29.46,95.0889,,4.56,,,,,,,,,,4.56
Dickinson NWS,-95.08,29.47,-95.08,Aug 25-31 12z,,,,,,,,,,,43.92
Dilley 0.4 SSW,-99.1724,28.66,99.1724,0,0,0.39,0.02,0,0,0,0,,,,0.41
Dilley 17.9 ESE,-98.9,28.57,98.9,,0.06,0.4,0,0,0,0,0,,,,0.46
DIME BOX                      ,-96.85,30.36,-96.85,,1.57,8.13,5.13,0.02,,,,,,,14.85
Dodd City 3.0 NNW,-96.0978,33.61,96.0978,0,0,0.03,0,0,0,0,0,,,,0.03
Dodge 1.6 S,-95.4017,30.72,95.4017,,0.31,7.68,11.65,2.25,0.91,0.06,,,,,22.86
Driftwood 1 SW,-98.05,30.1,-98.05,Aug 25-28 12z,,,,,,,,,,,4.57
Driftwood 2 SE,-98.01,30.1,-98.01,Aug 25-28 12z,,,,,,,,,,,7.41
Driftwood 2.4 NNW,-98.0394,30.16,98.0394,,1.48,4.44,0.98,,,,,,,,6.9
Driftwood 2.42 SSW,-98.0449,30.09,98.0449,0.05,6.16,1.44,,,,,,,,,7.65
Driftwood 2.8 NNW,-98.0403,30.16,98.0403,0,0.74,5.07,1.08,0,0,0,0,,,,6.89
Driftwood 4 W,-98.1,30.12,-98.1,Aug 25-28 12z,,,,,,,,,,,6.28
Driftwood 5 NE,-97.98,30.17,-97.98,Aug 25-28 12z,,,,,,,,,,,3.18
Driftwood 5.0 S,-98.0187,30.05,98.0187,0.13,0.94,6.83,1.12,0.05,0,,0,,,,9.07
Driftwood 6 NE,-97.96,30.19,-97.96,Aug 25-28 12z,,,,,,,,,,,5.43
Driftwood/Onion Creek,-98.03,30.12,-98.03,Aug 25-28 12z,,,,,,,,,,,7.27
DRIPPING SPRINGS         4 NNE,-98.06,30.25,-98.06,0,0.91,4.13,1.24,0,,,,,,,6.28
DRIPPING SPRINGS         5 SSW,-98.11,30.12,-98.11,0,0.65,4.77,0.87,0,,,,,,,6.29
DRIPPING SPRINGS         6 E  ,-97.98,30.21,-97.98,,1.08,4.5,1.24,,,,,,,,6.82
DRIPPING SPRINGS         8 W  ,-98.22,30.2,-98.22,0.17,0.82,3.33,1.04,0,,,,,,,5.36
Dripping Springs 0.6 SSE,-98.0836,30.18,98.0836,0,0.99,5.07,1.25,0.01,0,0,0,,,,7.32
Dripping Springs 1.3 E,-98.0674,30.19,98.0674,,1.32,4.59,1.15,,,,,,,,7.06
Dripping Springs 1.4 N,-98.0849,30.21,98.0849,,1.18,3.9,1.16,0.02,,,,,,,6.26
Dripping Springs 1.7 NW,-98.1093,30.2,98.1093,0,0.75,4.56,1.23,0,0,,,,,,6.54
Dripping Springs 3.3 NE,-98.0451,30.22,98.0451,0,1.34,3.48,0.76,0,0,0,0,,,,5.58
Dripping Springs 3.8 ESE,-98.0268,30.18,98.0268,0.02,0.93,5.51,1.51,0.02,0,0,0,,,,7.99
Dripping Springs 4 NNE,-98.06,30.25,-98.06,Aug 25-28 12z,,,,,,,,,,,6.25
Dripping Springs 4.1 SSW,-98.1064,30.13,98.1064,0,0.98,1.78,0.52,0.02,0,0,0,,,,3.3
Dripping Springs 4.3 E,-98.0165,30.2,98.0165,0.02,0.99,5.07,1.27,0,0,0,0,,,,7.35
Dripping Springs 5 NNE,-98.05,30.26,-98.05,Aug 25-28 12z,,,,,,,,,,,5.92
Dripping Springs 5 SSW,-98.11,30.12,-98.11,Aug 25-28 12z,,,,,,,,,,,8.21
Dripping Springs 5.6 E,-97.9946,30.19,97.9946,,,6.13,1.43,0.02,,,,,,,7.58
Dripping Springs 6 N,-98.08,30.31,-98.08,Aug 25-28 12z,,,,,,,,,,,4.69
Dripping Springs 6.0 NNE,-98.0602,30.27,98.0602,0.02,0.88,4.44,1.5,0,0,0,0,,,,6.84
Dripping Springs 6.1 WNW,-98.1749,30.24,98.1749,,1,3.35,1.29,,,,,,,,5.64
Dripping Springs 6.2 WSW,-98.1876,30.16,98.1876,,,,,0,0,0,0,,,,0
Dripping Springs 6.3 E,-97.9829,30.18,97.9829,0.08,1.44,3.5,1.02,0.02,0,0,0,,,,6.06
Dripping Springs 6.4 N,-98.0711,30.28,98.0711,0.32,1.15,3.09,1.22,0,0,0,0,,,,5.78
Dripping Springs 7.2 E,-97.969,30.2,97.969,0.09,1.03,5.17,1.22,0.02,,0,0,,,,7.53
Dripping Springs 7.6 N,-98.0945,30.3,98.0945,0.22,1,4.1,1.24,,,,,,,,6.56
Dripping Springs 8.4 W,-98.2263,30.17,98.2263,0.07,0.68,3.15,1.01,0,0,0,0,,,,4.91
Dryden 17.7 NE,-101.8204,30.07,101.8204,,,0,0,0,0,,,,,,0
DUMONT                        ,-100.52,33.81,-100.52,,,0,0,,,,,,,,0
Duncanville 1.7 NNW,-96.9216,32.67,96.9216,0,0,0.03,0.21,0.12,0,0,0,,,,0.36
Duncanville 3.2 WNW,-96.9666,32.66,96.9666,0,0.05,0.04,0.4,0.23,0,,,,,,0.72
DUNDEE                   5 NW ,-98.93,33.81,-98.93,,,0,0,0,,,,,,,0
EAGLE LAKE               7 NE ,-96.24,29.66,-96.24,0.02,8.99,4.7,5.43,2.61,0,0,,,,,21.75
Eagle Mountain 2.4 WSW,-97.4798,32.88,97.4798,0.32,,,0.37,0,0,0,0,,,,0.69
EAGLE PASS                    ,-100.48,28.71,-100.48,,,,0,,,,,,,,0
East Bay Bayou @ Skillern Tract,-94.4137,29.63,-94.4137,3.62,3.11,8.47,11.53,19.17,1.54,0,,,,,47.44
EAST BERNARD                  ,-96.06,29.53,-96.06,0.02,8.36,4.83,2.81,5.34,0,0.01,,,,,21.37
East Bernard 7.6 S,-96.0577,29.42,96.0577,0.07,7.6,5.24,2.37,5.19,0,0,0,,,,20.47
East Fork of DB @ Fairview Rd,-94.5828,29.73,-94.5828,1.69,4.29,11.3,9.96,12.76,1.57,0,,,,,41.57
East Fork San Jacinto @ FM 1485,-95.1251,30.15,-95.1251,0.16,4.4,13.92,4.56,4.36,0.04,0,,,,,27.44
East Lucas @ Ditch 002,-94.1197,30.13,-94.1197,0.4,2.71,8.98,5.47,15.08,6.97,0.04,,,,,39.65
Eastex Freeway @ Ditch 001,-94.1578,30.13,-94.1578,0.31,2.36,8.82,5.36,16.65,6.22,0.04,,,,,39.76
Eden 2.5 SSW,-99.8595,31.18,99.8595,,1.42,0.3,0.07,,,,,,,,1.79
Edgecliff 3.7 WSW,-97.3966,32.63,97.3966,3.5,0.26,0.17,0.65,,,,,,,,4.58
EDINBURG                      ,-98.15,26.3,-98.15,,0,0,0,0,,,,,,,0
Edinburg 2.4 N,-98.171,26.33,98.171,0.01,0,0,0,0,0,0,0,,,,0.01
EL CAMPO                15 WSW,-96.51,29.16,-96.51,0.35,3.14,1.91,1.47,2.29,0.03,,,,,,9.19
El Campo 1.0 NW,-96.289,29.21,96.289,0.34,4.35,3.06,2.57,2.9,0,0,0,,,,13.22
El Campo 2.5 WSW,-96.3156,29.18,96.3156,,3.91,3.05,1.27,3.17,,,,,,,11.4
El Campo 2.7 NW,-96.302,29.23,96.302,0.19,4.5,3.51,1.51,3.49,0,0,0,,,,13.2
El Campo 4.9 SSE,-96.2602,29.13,96.2602,0.4,5.46,3.87,1.05,4.38,0,0,0,,,,15.16
El Cenizo 8.8 E,-99.361,27.32,99.361,0,0,0,0,0,0,0,0,,,,0
El Paso 1.2 WSW,-106.4565,31.84,106.4565,0,0.05,0,0,0,0,0,0,,,,0.05
El Paso 1.7 W,-106.4659,31.85,106.4659,0,0.07,0,,0,,,0,,,,0.07
El Paso 10.7 E,-106.3088,31.74,106.3088,,0,,0,0,,0,0,,,,0
El Paso 10.7 E,-106.3051,31.76,106.3051,,0,,0,0,0,0,,,,,0
El Paso 11.3 ENE,-106.2954,31.77,106.2954,0,0,0,0,0,0,0,0,,,,0
El Paso 2.9 SSW,-106.4525,31.81,106.4525,,0.06,,,,,,,,,,0.06
El Paso 3.3 NNE,-106.4222,31.9,106.4222,0,0,0,0,0,0,0,0,,,,0
El Paso 3.8 SSW,-106.4642,31.8,106.4642,,0.04,,,,,,,,,,0.04
El Paso 4.0 SSW,-106.4566,31.79,106.4566,0,0.03,0,0,0,0,0,0,,,,0.03
El Paso 4.6 NNE,-106.3952,31.91,106.3952,0,0,0,0,0,0,0,0,,,,0
El Paso 4.6 WSW,-106.5134,31.83,106.5134,0,0,0,0,0,0,0,0,,,,0
El Paso 4.7 N,-106.4278,31.92,106.4278,,,,,0,0,0,0,,,,0
El Paso 5.1 SW,-106.4905,31.79,106.4905,,,,0,0,0,0,0,,,,0
El Paso 5.5 SW,-106.4941,31.79,106.4941,0.01,,,0,0,0,0,0,,,,0.01
El Paso 6.0 N,-106.445,31.94,106.445,0,0,0,0,0,0,0,0,,,,0
El Paso 6.4 SE,-106.3686,31.78,106.3686,0,0.03,0,0,0,0,0,0,,,,0.03
El Paso 6.9 WNW,-106.5503,31.88,106.5503,0,0,0,0,0,0,0,0,,,,0
El Paso 7.6 SE,-106.3445,31.77,106.3445,,0.03,,,,,,,,,,0.03
El Paso 8.0 WSW,-106.5669,31.81,106.5669,,0.15,,,,,,,,,,0.15
El Paso 8.8 SE,-106.3325,31.76,106.3325,0,0,0,0,0,0,0,0,,,,0
El Paso 8.9 ESE,-106.3112,31.78,106.3112,0,0,0,0,0,0,0,0,,,,0
El Paso 9.1 WNW,-106.5861,31.89,106.5861,,0.29,,,,,,,,,,0.29
Eldorado 0.2 WSW,-100.6005,30.86,100.6005,0.02,0.14,0.06,0.2,,,,,,,,0.42
Eldorado 22.6 ENE,-100.2609,31.02,100.2609,,0.42,,,,,,,,,,0.42
Elgin,-97.37,30.35,-97.37,Aug 25-28 12z,,,,,,,,,,,10.16
ELGIN                         ,-97.37,30.35,-97.37,0,2.57,5.39,2.2,0.05,0,,,,,,10.21
ELGIN                    6 SSE,-97.33,30.27,-97.33,0.01,1.93,7.64,2.56,0.12,0,,,,,,12.26
ELGIN                    8 NW ,-97.47,30.42,-97.47,0.01,1.1,6.15,2.46,0.02,0,,,,,,9.74
ELGIN                    9 SW ,-97.43,30.23,-97.43,0.01,1.89,7.51,2.04,0.07,0,,,,,,11.52
Elgin 0.9 NW,-97.3842,30.36,97.3842,0,1.56,6.79,2.47,0.05,0,0,0,,,,10.87
Elgin 2 ENE,-97.35,30.36,-97.35,Aug 25-28 12z,,,,,,,,,,,8.51
Elgin 2 NE,-97.34,30.38,-97.34,Aug 25-28 12z,,,,,,,,,,,8.53
Elgin 2.0 W,-97.4062,30.35,97.4062,,,,0,0,0,0,,,,,0
Elgin 2.8 NNE,-97.3573,30.39,97.3573,0.28,1.76,6.14,2.51,0.05,0,0,0,,,,10.74
Elgin 3.4 W,-97.4298,30.35,97.4298,,,4.25,1.85,0,0,0,0,,,,6.1
Elgin 3.8 ENE,-97.3173,30.38,97.3173,0,1.9,7.34,2.52,0.05,0,0,0,,,,11.81
Elgin 3.8 W,-97.4355,30.34,97.4355,0.37,3.06,4.63,2.06,,,,,,,,10.12
Elgin 4.4 SSE,-97.3414,30.29,97.3414,0,2.93,6.11,2.33,0,0,0,0,,,,11.37
Ellington Field  ,-95.16,29.6,-95.16,Aug 25-31 12z,,,,,,,,,,,39.23
Ellington Field 1 SW,-95.17,29.59,-95.17,Aug 25-31 12z,,,,,,,,,,,39.23
Ellington Field 2 E,-95.12,29.6,-95.12,Aug 25-31 12z,,,,,,,,,,,52
Elliott 1.2 NNE,-99.042,34.17,99.042,0,0.53,,,0,0,0,0,,,,0.53
Elm Bayou at Fairview Road,-94.4041,29.73,-94.4041,1.81,2.72,8.5,9.49,15.55,0.83,0,,,,,38.9
Elmendorf 0.8 NNE,-98.3282,29.27,98.3282,0.87,0.6,2.25,0.44,0,0,0,0,,,,4.16
Elmendorf 5.6 ENE,-98.2456,29.28,98.2456,0.35,0.65,1.98,0.72,0.01,0,0,0,,,,3.71
Enchanted Rock Station 3 E,-98.77,30.51,-98.77,Aug 25-28 12z,,,,,,,,,,,1.51
Enchanted Rock Station 3 NW,-98.85,30.54,-98.85,Aug 25-28 12z,,,,,,,,,,,0.7
Enchanted Rock Station 6 S,-98.82,30.41,-98.82,Aug 25-28 12z,,,,,,,,,,,1.36
Enchanted Rock Station 7 NE,-98.71,30.6,-98.71,Aug 25-28 12z,,,,,,,,,,,1.01
Enchanted Rock Station 9 ENE,-98.69,30.54,-98.69,Aug 25-28 12z,,,,,,,,,,,1.23
Encino 2 W,-98.17,26.93,-98.17,,0.05,,,,,,,,,,0.05
Encino 5 N,-98.13,27,-98.13,,0.35,,,,,,,,,,0.35
Ennis 10.0 NNE,-96.5622,32.47,96.5622,0,0,0.11,0.08,0,0,0,0,,,,0.19
Ennis 7.0 ENE,-96.5122,32.36,96.5122,0,0.13,0.03,0.42,0,0,0,0,,,,0.58
Eustace 7.4 NE,-95.9162,32.38,95.9162,0,0,0.06,0.05,0,0,0,0,,,,0.11
Ezers Bridge,-94.6175,29.61,-94.6175,1.58,4.25,7.4,9.65,13.78,0.35,0,,,,,37.01
F.M. 1406 @ North Fork Taylors Bayou,-94.4003,29.95,-94.4003,0.63,3.35,12.52,8.46,13.66,3.19,0,,,,,41.81
Fair Oaks Ranch 0.4 WSW,-98.6425,29.73,98.6425,0,0.25,1.03,0.46,0,0,0,0,,,,1.74
Fair Oaks Ranch 1.1 NNW,-98.6402,29.75,98.6402,0.01,0.23,0.81,0.42,0,0,0,0,,,,1.47
Fair Oaks Ranch 1.8 NW,-98.6527,29.76,98.6527,0,0.29,0.84,0.41,0,0,0,0,,,,1.54
Fair Oaks Ranch 10.0 NNE,-98.5854,29.87,98.5854,0.03,0.17,0.86,0.47,0,0,0,0,,,,1.53
Fair Oaks Ranch 2.2 NNW,-98.6465,29.77,98.6465,0,0.26,0.76,0.44,0,0,0,0,,,,1.46
Fairview 1.5 ESE,-96.6003,33.13,96.6003,0,0.04,0,0.22,,0,,0,,,,0.26
Falfurrias,-98.14,27.22,-98.14,,0.2,,,,,,,,,,0.2
FALFURRIAS                    ,-98.14,27.26,-98.14,,0.24,,,,,,,,,,0.24
Falfurrias 0.4 WNW,-98.1516,27.23,98.1516,,0.25,,,,,,,,,,0.25
Falfurrias 0.8 SSW,-98.1505,27.21,98.1505,0.05,0.24,0,0.03,0,0,0,0,,,,0.32
Falfurrias 8.9 SSW,-98.2058,27.11,98.2058,0.05,0.11,0,0,0,0,0,0,,,,0.16
Falls City 8.3 WSW,-98.155,28.95,98.155,0,1.43,1.63,0.36,0,0,0,0,,,,3.42
Fancher Crossing @ State Hwy 65,-94.5544,29.77,-94.5544,1.42,3.34,10.32,8.34,11.66,1.06,0.04,,,,,36.18
Fannett 1 NE,-94.24,29.93,-94.24,Aug 24-Sep 1 12z,,,,,,,,,,,49.25
Fannett 2 SW,-94.27,29.9,-94.27,Aug 24-Sep 1 12z,,,,,,,,,,,44.96
Fannett 5 WNW,-94.33,29.95,-94.33,Aug 24-Sep 1 12z,,,,,,,,,,,45
Fannett 6 SE,-94.18,29.86,-94.18,Aug 24-Sep 1 12z,,,,,,,,,,,39.76
Fayetteville 1.0 SW,-96.6866,29.9,96.6866,0.1,4.52,9.93,7.59,0.55,0.01,0,0,,,,22.7
Fayetteville 4 W,-96.74,29.91,-96.74,Aug 25-28 12z,,,,,,,,,,,18.47
FEDOR                         ,-97.06,30.32,-97.06,0,3.36,8.7,,,,,,,,,12.06
First Colony 2 SE,-95.58,29.55,-95.58,Aug 25-31 12z,,,,,,,,,,,39.17
FISCHER                       ,-98.26,29.98,-98.26,0.31,,,0.6,0,,,,,,,0.91
Fischer 2 SSE,-98.26,29.95,-98.26,Aug 25-28 12z,,,,,,,,,,,3.56
Fischer 2.3 ESE,-98.23,29.97,98.23,0.19,0.68,3.42,0.38,,,,,,,,4.67
Fischer 4 ENE,-98.22,30,-98.22,Aug 25-28 12z,,,,,,,,,,,5.05
Flatonia 0.4 SW,-97.1117,29.68,97.1117,0,3.84,8.04,7.23,0.13,0,0,,,,,19.24
Flatonia 11.9 NNW,-97.1777,29.85,97.1777,0,3.12,12.85,10.65,0,0,0,0,,,,26.62
FLORENCE                 3 SE ,-97.77,30.8,-97.77,,,,0.36,0,,,,,,,0.36
FLORENCE                 3 SW ,-97.82,30.81,-97.82,0.06,0.02,1.63,0.73,0,0,,,,,,2.44
Florence 5.0 SSE,-97.7482,30.78,97.7482,,0.16,2.59,0.88,,,,,,,,3.63
Floresville 0.7 S,-98.1566,29.13,98.1566,,,,,,0,,,,,,0
Floresville 4 NW,-98.21,29.18,-98.21,Aug 25-28 12z,,,,,,,,,,,3.01
Floresville 5.7 WNW,-98.2366,29.18,98.2366,0.01,0.77,2.12,0.67,0.01,0,0,0,,,,3.58
Floresville 8.1 NNW,-98.1958,29.25,98.1958,0.03,0.94,2.63,1.09,0.02,0,0,0,,,,4.71
Floresville 8.9 WNW,-98.2988,29.17,98.2988,0,0.54,1.77,0.4,,,,,,,,2.71
Floresville 9.4 NW,-98.2473,29.25,98.2473,0.08,0.85,1.85,0.68,0.02,0,0,,,,,3.48
Floresville/San Antonio River,-98.16,29.13,-98.16,Aug 25-28 12z,,,,,,,,,,,3.22
Flour Bluff 1.6 SW,-97.3031,27.66,97.3031,0.52,3.02,0.1,0.01,0,0,0,0,,,,3.65
Flower Mound 1.3 ESE,-97.0715,33.02,97.0715,,,,0.41,,,,,,,,0.41
Flower Mound 1.4 SSE,-97.0817,33.01,97.0817,0,0.02,0.02,0.44,0,0,0,0,,,,0.48
Flower Mound 2.3 NE,-97.0703,33.06,97.0703,0,0.02,0.02,0.03,0,0,0,0,,,,0.07
FLOYDADA                      ,-101.33,34,-101.33,,,0,0,,,,,,,,0
FLOYDADA                 1 S  ,-101.34,33.99,-101.34,,,0,0,,,,,,,,0
FLOYDADA                 9 SE ,-101.25,33.88,-101.25,,,0.04,0,,,,,,,,0.04
FLUVANNA                      ,-101.2,32.9,-101.2,,,0,0,,,,,,,,0
FMSP McKelligon,-106.4864,31.84,106.4864,0,0,0,0,0,0,0,0,,,,0
FMSP Tom Mays,-106.5152,31.92,106.5152,0,0,0,0,0,0,0,0,,,,0
Folsom Road @ Hillebrandt Bayou (D-100),-94.1658,30.12,-94.1658,0.24,1.85,8.66,5.31,14.88,4.93,0.35,,,,,36.22
Forest Trail @ Ditch 1202 (Northwest Forest),-94.2489,30.14,-94.2489,0.36,2.44,9.21,6.18,15.71,3.9,0,,,,,37.8
FORESTBURG               5 S  ,-97.57,33.47,-97.57,,,,,,0,,,,,,0
Forney 1.3 SSW,-96.4755,32.74,96.4755,,,0.25,,,,,,,,,0.25
Fort Davis 0.3 NNW,-103.8958,30.59,103.8958,0.06,0,0,0,0,0,0,0,,,,0.06
Fort Davis 1.7 SSE,-103.8842,30.57,103.8842,0.09,0,0,0,0,0,0,0,,,,0.09
Fort McKavett 7.2 N,-100.1112,30.93,100.1112,0,0.04,0,0.2,0,0,0,0,,,,0.24
Fort Stockton 11.5 N,-102.8883,31.06,102.8883,,,,,,0,0,0,,,,0
FORT WORTH                    ,-97.32,32.99,-97.32,,,0.05,0.14,,0,,,,,,0.19
FORT WORTH                    ,-97.36,32.82,-97.36,,,0.17,0.47,,0,,,,,,0.64
FORT WORTH                    ,-97.48,32.85,-97.48,,,0.2,0.62,0,,,,,,,0.82
Fort Worth 1.8 WSW,-97.3632,32.74,97.3632,,,,,0,0,0,0,,,,0
Fort Worth 11.8 NW,-97.4519,32.89,97.4519,0.37,0.04,0.13,0.35,0,0,0,0,,,,0.89
Fort Worth 12.5 NW,-97.4433,32.87,97.4433,,,,0.01,0,0,0,0,,,,0.01
Fort Worth 13.4 N,-97.3022,32.92,97.3022,0.37,0.04,0.11,0.78,0,,,,,,,1.3
Fort Worth 4.0 SW,-97.3795,32.71,97.3795,0.44,0,,0.37,0,0,0,0,,,,0.81
Fort Worth 5.4 SSW,-97.3629,32.68,97.3629,1.33,,,,,,,,,,,1.33
Fort Worth 6.3 E,-97.2274,32.75,97.2274,0,,,,,,,,,,,0
Fort Worth 6.5 SSW,-97.3676,32.66,97.3676,,,,,0,,,,,,,0
Fredericksburg,-98.91,30.24,-98.91,Aug 25-28 12z,,,,,,,,,,,0.73
FREDERICKSBURG                ,-98.91,30.24,-98.91,,,,,0.01,,,,,,,0.01
FREDERICKSBURG           3 S  ,-98.87,30.22,-98.87,0,0.2,0.81,0.09,0,,,,,,,1.1
FREDERICKSBURG           5 N  ,-98.87,30.34,-98.87,0,0.03,0.89,0.6,0.01,,,,,,,1.53
FREDERICKSBURG           9 SW ,-98.95,30.17,-98.95,0.11,0.41,0.71,0.17,0,,,,,,,1.4
FREDERICKSBURG          10 NNE,-98.85,30.42,-98.85,0,0,0.97,0.43,0,,,,,,,1.4
FREDERICKSBURG          10 SSE,-98.81,30.14,-98.81,0,0.46,0.95,0.09,0,,,,,,,1.5
FREDERICKSBURG          10 WSW,-99.03,30.25,-99.03,0.03,0,0.45,0.22,,,,,,,,0.7
FREDERICKSBURG          11 NNE,-98.81,30.43,-98.81,,,0.5,,,,,,,,,0.5
FREDERICKSBURG          12 NW ,-99.01,30.41,-99.01,0.3,0.06,1.13,0.58,,,,,,,,2.07
Fredericksburg 11.4 NE,-98.7321,30.38,98.7321,0,0.22,1.23,0.24,0,0,0,0,,,,1.69
Fredericksburg 12.1 NNE,-98.8158,30.44,98.8158,0,0,0.95,0.21,0,0,0,0,,,,1.16
Fredericksburg 12.2 W,-99.0766,30.26,99.0766,0.41,0.01,0.46,0.37,0,0,0,0,,,,1.25
Fredericksburg 12.4 NE,-98.4437,30.24,98.4437,,0.03,1.13,0.18,,,,,,,,1.34
Fredericksburg 13.1 SW,-99.0478,30.16,99.0478,,0.41,0.51,0.38,,,,,,,,1.3
Fredericksburg 16.1 WSW,-99.1364,30.22,99.1364,,,0,,0,0.55,0,0,,,,0.55
Fredericksburg 2.0 WNW,-98.9033,30.28,98.9033,0,0.32,0.61,0.35,0,0,0,0,,,,1.28
Fredericksburg 4 N,-98.87,30.34,-98.87,Aug 25-28 12z,,,,,,,,,,,1.48
Fredericksburg 7.2 NW,-98.9408,30.36,98.9408,0.2,0.3,0.95,0.56,0,0,0,0,,,,2.01
Fredericksburg 7.4 ENE,-98.7521,30.3,98.7521,0,0.11,0.9,0.11,0,,,,,,,1.12
Fredericksburg 8.0 WNW,-99.0006,30.3,99.0006,0.34,0.11,0.38,0.03,,,,,,,,0.86
Fredericksburg 8.3 SSW,-98.915,30.16,98.915,0,1.1,0,0,0,0,0,0,,,,1.1
Fredericksburg 9 W,-99.02,30.28,-99.02,Aug 25-28 12z,,,,,,,,,,,0.67
Fredericksburg 9.1 WSW,-99.0154,30.23,99.0154,0.37,0.07,0.33,0.24,0,0,0,0,,,,1.01
Fredericksburg 9.1 WSW,-99.0164,30.23,99.0164,0.31,0.05,0.45,0.2,,,,,,,,1.01
Fredonia 3.7 NE,-99.0689,30.97,99.0689,0.26,,0.43,0.45,,,,,,,,1.14
FREEPORT                 2 NW ,-95.38,28.98,-95.38,,,12.16,4.85,,,,,,,,17.01
FREER                         ,-98.62,27.88,-98.62,,0.16,0.44,,0,,,,,,,0.6
Freer 29.5 WSW,-99.0423,27.68,99.0423,0,0,0,0,0,0,0,0,,,,0
FRELSBURG                4 SW ,-96.58,29.83,-96.58,0.08,7.03,10.31,7.27,0.76,0,,,,,,25.45
Frenchman Canyon,-105.1475,30.93,105.1475,,,,,,,0,,,,,0
FRIDAY                   4 SE ,-95.2,31.1,-95.2,0,,,,,,,,,,,0
Friendswood,-95.2,29.5,-95.2,Aug 25-31 12z,,,,,,,,,,,56
FRIENDSWOOD                   ,-95.22,29.51,-95.22,,,,5.36,,,,,,,,5.36
FRIENDSWOOD              2 SE ,-95.16,29.5,-95.16,,,,5.88,,,,,,,,5.88
Friendswood 1.0 SE,-95.1873,29.5,95.1873,0.31,3.95,16.59,4.89,13.04,1.34,0,0,,,,40.12
Friendswood 1.4 NNE,-95.1852,29.53,95.1852,0.07,3.37,11.6,6.57,12.45,,,0,,,,34.06
Friendswood 1.6 NE,-95.181,29.53,95.181,0.04,2.76,9.69,5.58,14.88,1.38,0,0,,,,34.33
Friendswood 1.9 SSW,-95.2072,29.49,95.2072,0.78,5.33,11,11,11.24,,,,,,,39.35
Friendswood 2 E,-95.16,29.5,-95.16,Aug 25-31 12z,,,,,,,,,,,47.4
Friendswood 2 ESE,-95.16,29.49,-95.16,Aug 25-31 12z,,,,,,,,,,,44
Friendswood 2 NNW,-95.22,29.54,-95.22,Aug 25-31 12z,,,,,,,,,,,50.04
Friendswood 2.5 NNE,-95.1821,29.55,95.1821,0.01,2.77,19.41,6.23,14.34,1.29,0,0,,,,44.05
FRIENDSWOOD TX/CLEAR CREEK,-95.18,29.52,-95.18,,,,,,1.12,,,,,,1.12
Frint Road Willow Marsh Bayou,-94.1553,30,-94.1553,0.47,1.93,8.43,7.09,23.81,4.61,0.04,,,,,46.38
FRISCO                        ,-96.81,33.15,-96.81,,,,0,0,,,,,,,0
Frisco 1.9 N,-96.8117,33.17,96.8117,0,0.03,0,0,0,0,0,,,,,0.03
FT MCKAVETT              1 N  ,-100.11,30.83,-100.11,,,0.14,0.02,,,,,,,,0.16
Fulshear 2.7 WNW,-95.9397,29.71,95.9397,,,,,,0,0,0,,,,0
GAIL                     2 SE ,-101.41,32.76,-101.41,,,0,0,,,,,,,,0
Galveston,-94.8637,29.3,-94.8637,,,,,,,,,,,,18.05
GALVESTON Scholes Field,-94.86,29.27,-94.86,0.86,2.13,5.96,1.51,7.35,5.06,0,,,,,22.87
Galveston 2.6 WSW,-94.9337,29.22,94.9337,,3.4,4.25,0.72,7.4,0.33,,,,,,16.1
Galveston 5.6 NE,-94.817,29.28,94.817,0.48,,,,,,,,,,,0.48
Galveston 6.4 NE,-94.805,29.28,94.805,0.8,2.78,7.66,2.37,7.91,4.33,,,,,,25.85
Galveston 8.3 NE,-94.7817,29.3,94.7817,1.14,,7.49,0.79,10.6,3.41,,,,,,23.43
Galveston 8.4 NE,-94.7809,29.3,94.7809,1.19,2.53,4.99,10,5.7,4.92,0,0,,,,29.33
Ganado 1.5 W,-96.5367,29.04,96.5367,0,7.45,0.72,0.2,3.14,0,0,0,,,,11.51
Garden Ridge,-98.31,29.63,-98.31,Aug 25-28 12z,,,,,,,,,,,3.75
Garden Ridge 1.1 NW,-98.3078,29.65,98.3078,0.02,0.45,2.38,0.42,,,,,,,,3.27
Garden Ridge 1.2 WNW,-98.3114,29.64,98.3114,0.03,0.57,2.66,0.46,0,,,0,,,,3.72
Garden Ridge 3.4 NW,-98.3309,29.67,98.3309,0,0.44,2.57,0.47,0,0,0,0,,,,3.48
Garden Ridge 3.7 NW,-98.3287,29.68,98.3287,0,0.41,3.52,0.65,0,0,0,0,,,,4.58
Garden Ridge 3.9 NW,-98.3323,29.68,98.3323,0,0.48,2.71,0.51,0,0,0,0,,,,3.7
GARFIELD                      ,-97.32,30.1,-97.32,0.07,2.47,11.22,2.77,0.02,0,,,,,,16.55
Garland 2.6 S,-96.6238,32.87,96.6238,0,0.05,0.06,0.28,,,,,,,,0.39
Garland 3.6 NNW,-96.6622,32.96,96.6622,0,0.1,0.05,0.26,0.15,0,0,0,,,,0.56
Garland 4.1 S,-96.6399,32.85,96.6399,,0.01,0.05,0.08,0.01,,,,,,,0.15
Garners Bayou @ Beltway 8,-95.2336,29.93,-95.2336,0.64,6.12,15.96,6.12,3.72,0,0,,,,,32.56
Garners Bayou @ Rankin Road,-95.272,29.97,-95.272,0.56,6.92,17.44,6.64,4.24,0,0,,,,,35.8
Gary City 3.8 W,-94.4326,32.02,94.4326,0,0,0.1,0.45,0.1,0.22,1.42,0,,,,2.29
Gatesville 12.0 SE,-97.5704,31.34,97.5704,0,0.25,0.71,0.49,0,0,0,0,,,,1.45
Gatesville 9.8 SW,-97.8508,31.34,97.8508,0,0,0.42,0.29,0,,0,0,,,,0.71
Gause 2.5 W,-96.7631,30.79,96.7631,0,0.83,5.49,3.61,0.17,0,0,0,,,,10.1
Gause 2.8 NNW,-96.7485,30.82,96.7485,0.05,0.81,6,2.92,0.2,0.01,0,0,,,,9.99
GEORGE WEST              2 SSW,-98.12,28.3,-98.12,0.12,1.24,0.64,0.04,0,,,,,,,2.04
George West 1.8 SSW,-98.132,28.31,98.132,0.12,1.24,0.64,0.04,0,0,0,0,,,,2.04
George West 11.3 S,-98.0926,28.17,98.0926,,2.6,0.5,0.03,,,,,,,,3.13
George West 2.7 NNW,-98.1405,28.36,98.1405,0,1.2,0.15,0.03,0,0,0,0,,,,1.38
George West 2.9 E,-98.0751,28.33,98.0751,0.16,1.57,0.56,0.05,0,0,0,0,,,,2.34
George West 8.0 NE,-98.0232,28.41,98.0232,0.15,1.16,1.26,0.06,,0,0,0,,,,2.63
GEORGETOWN                    ,-97.71,30.67,-97.71,,,,0.38,,0,,,,,,0.38
GEORGETOWN                    ,-97.68,30.68,-97.68,0,0.26,3.24,1.08,0.01,0,,,,,,4.59
Georgetown 0.3 N,-97.6866,30.65,97.6866,,0.48,3.04,1.03,0.03,,,,,,,4.58
Georgetown 1.2 W,-97.7069,30.65,97.7069,0,0.54,2.43,0.91,0.02,0,0,0,,,,3.9
Georgetown 1.3 WNW,-97.707,30.65,97.707,,0.66,3.3,0.99,0.02,,,,,,,4.97
Georgetown 1.4 SE,-97.6715,30.63,97.6715,0,0.9,3.5,1.33,,0,0,0,,,,5.73
Georgetown 1.5 WNW,-97.7093,30.66,97.7093,,0.58,3.31,1.01,,,,,,,,4.9
Georgetown 1.6 W,-97.7133,30.65,97.7133,,0.77,2.86,0.87,0.02,,,,,,,4.52
Georgetown 1.8 WSW,-97.7139,30.64,97.7139,,0.78,3.4,1.2,,,,,,,,5.38
Georgetown 10.2 W,-97.8574,30.63,97.8574,0.62,0.28,3.01,1.14,,,,0,,,,5.05
Georgetown 2 SSW,-97.69,30.6,-97.69,Aug 25-28 12z,,,,,,,,,,,5.09
Georgetown 2.8 NNW,-97.7117,30.68,97.7117,0,0.33,2.83,0.91,0.01,0,0,0,,,,4.08
Georgetown 3.0 ESE,-97.6387,30.63,97.6387,0,0.66,4.19,1.74,0.02,0,0,0,,,,6.61
Georgetown 3.5 N,-97.6922,30.7,97.6922,0,0.33,3.17,1,0,0,0,0,,,,4.5
Georgetown 4 SSW,-97.7,30.58,-97.7,Aug 25-28 12z,,,,,,,,,,,4.74
Georgetown 4.3 W,-97.7584,30.64,97.7584,0.05,0.46,3.04,0.86,0,0,0,,,,,4.41
Georgetown 4.5 NNW,-97.7025,30.71,97.7025,,0.8,2.8,0.86,,,,,,,,4.46
Georgetown 4.5 SSE,-97.6509,30.59,97.6509,0.05,0.6,4.45,1.82,0.04,0,0,0,,,,6.96
Georgetown 4.6 NNW,-97.7226,30.71,97.7226,0,0.4,2.84,0.88,0.01,0,0,0,,,,4.13
Georgetown 4.7 NNE,-97.6681,30.71,97.6681,0,,,,0.01,0,0,0,,,,0.01
Georgetown 4.9 NW,-97.7339,30.71,97.7339,0,0.4,3.02,0.62,0.01,0,0,0,,,,4.05
Georgetown 5.0 NNW,-97.7326,30.71,97.7326,0,0.5,3.16,1.19,0.1,0,0,,,,,4.95
Georgetown 5.3 NNW,-97.7285,30.72,97.7285,0,0.11,2.67,0.91,0,0,0,0,,,,3.69
Georgetown 5.5 NNW,-97.71,30.72,97.71,0,0.34,2.4,0.82,0.02,,,0,,,,3.58
Georgetown 5.5 NNW,-97.7094,30.73,97.7094,,,,,,,0,,,,,0
Georgetown 5.9 NNW,-97.7391,30.72,97.7391,0,0.18,2.48,0.84,0,0,0,0,,,,3.5
Georgetown 6.6 NW,-97.7525,30.72,97.7525,0,0.47,2.14,0.8,0,0,0,0,,,,3.41
Georgetown 6.7 NW,-97.7571,30.72,97.7571,0,0.09,2.56,0.78,0,0,0,,,,,3.43
Georgetown 6.8 NW,-97.7589,30.72,97.7589,0,0.35,2.43,0.91,0,0,0,0,,,,3.69
Georgetown 7.3 NW,-97.775,30.72,97.775,0,0.65,2.55,0.89,0,0,0,0,,,,4.09
Georgetown 7.4 WSW,-97.8063,30.62,97.8063,0.03,0.48,3.14,1.04,0.02,,0,0,,,,4.71
Georgetown 8.0 WNW,-97.7994,30.71,97.7994,0.01,0.58,2.51,0.83,0.02,,,,,,,3.95
Georgetown 8.9 E,-97.5366,30.65,97.5366,0,0.36,5.03,1.75,0.02,,,,,,,7.16
Georgetown Dam 1 WNW,-97.7,30.68,-97.7,Aug 25-28 12z,,,,,,,,,,,5.07
Georgetown Dam 4 NW,-97.73,30.72,-97.73,Aug 25-28 12z,,,,,,,,,,,3.23
Gholson 2.9 SW,-97.2746,31.68,97.2746,0.14,,,,,,,,,,,0.14
GIDDINGS,-96.98,30.17,-96.98,Aug 25-28 12z,,,,,,,,,,,15.76
GIDDINGS                 3 WSW,-96.98,30.17,-96.98,0,4.11,8.3,7.41,0.02,0,,,,,,19.84
Giddings 7.3 NW,-97.0176,30.26,97.0176,0,3.61,6.4,3.78,0.02,0,0,0,,,,13.81
Gillett 1.6 WNW,-97.8103,29.14,97.8103,0.11,2.32,3.34,1.53,0,0,0,,,,,7.3
GIWW @ Chevron Duck Camp,-94.1842,29.69,-94.1842,2.76,2.83,4.49,4.76,19.25,0.28,0,,,,,34.37
GIWW @ Salt Bayou Outfall,-94.0094,29.79,-94.0094,1.02,2.41,5.19,5.75,18.74,0.59,0.04,,,,,33.74
GIWW @ State Highway 87 ( bridge ),-93.9653,29.82,-93.9653,0.75,1.77,4.22,5.07,16.66,3.58,0,,,,,32.05
GIWW at State Hwy 124 at Bridge,-94.3889,29.6,-94.3889,3.19,4.68,5.36,9.96,14.64,1.34,0,,,,,39.17
Gladys Avenue @ Hillbrandt Bayou (D-100),-94.1644,30.09,-94.1644,0.4,1.81,9.68,6.34,18.35,4.92,0,,,,,41.5
GLEN COVE                2 WNW,-99.63,31.88,-99.63,0.47,0.27,0.1,,,,,,,,,0.84
GLEN FLORA                    ,-96.2,29.34,-96.2,0.22,6.92,3.94,1.91,5.15,0.01,0,,,,,18.15
Glen Rose 5.1 SSW,-97.7812,32.17,97.7812,0.39,0.09,0.24,0.49,0,0,0,0,,,,1.21
Glenbrook Drive @ Green Acres @ Ditch 407,-94.2311,29.94,-94.2311,0.39,2.8,7.52,11.22,23.97,3.35,0,,,,,49.25
Glenn Heights 1.4 NE,-96.8376,32.57,96.8376,0,0.16,0.1,0.75,0.01,0,0,0,,,,1.02
Godley 2.6 NW,-97.561,32.47,97.561,0.21,,0.08,0.65,0.01,,,,,,,0.95
GOLD                          ,-98.69,30.35,-98.69,,0.11,1.18,,,,,,,,,1.29
GOLDTHWAITE              1 WSW,-98.58,31.45,-98.58,0,0.01,0.13,0.23,0,,,,,,,0.37
Goliad 0.1 S,-97.3918,28.67,97.3918,,,,,,,,0,,,,0
Goliad 0.4 NW,-97.3966,28.67,97.3966,0.26,,1.58,,,,,0,,,,1.84
Goliad 10 S,-97.39,28.52,-97.39,Aug 24 00z-Aug 30 2345z,,,,,,,,,,,22.68
Goliad 11.5 N,-97.4077,28.83,97.4077,0.95,6.07,2.11,1.24,0.07,0,0,0,,,,10.44
Goliad 14.3 NNE,-97.3311,28.86,97.3311,0.83,6.13,2.7,1.34,0.12,0.01,0,0,,,,11.13
Goliad 14.5 WNW,-97.6155,28.74,97.6155,0.48,,,0.98,0,0,,0,,,,1.46
Goliad 2.4 SE,-97.3585,28.65,97.3585,0.17,7.49,1.21,0.78,0.09,0,0,0,,,,9.74
Goliad 4.1 NW,-97.4399,28.71,97.4399,,,,,0,0,0,0,,,,0
Goliad 6.5 WNW,-97.4912,28.7,97.4912,0.08,6.7,0.75,1.89,0,0,,0,,,,9.42
Goliad 8.7 NNW,-97.4475,28.79,97.4475,0.21,6.53,1.41,1.21,0.12,0,0,0,,,,9.48
GONZALES                10 SW ,-97.52,29.44,-97.52,0.26,2.29,4.5,3.27,0,0,,,,,,10.32
Gonzales 0.6 S,-97.4479,29.5,97.4479,0.47,2.78,7.45,4.54,0,0,,0,,,,15.24
Gonzales 13.2 E,-97.2294,29.53,97.2294,0.23,3.88,8.74,6.44,0.1,0.03,0,0,,,,19.42
Gonzales 3.2 ENE,-97.3962,29.52,97.3962,,,10.25,6.15,,,,,,,,16.4
Gonzales 3.8 SW,-97.4948,29.47,97.4948,0.15,2.43,8.2,2.7,,,,,,,,13.48
Gonzales 4.4 NNW,-97.4814,29.56,97.4814,0,3.47,9.12,4.94,0.07,0,0,0,,,,17.6
Gonzales 4.5 SSE,-97.4251,29.45,97.4251,0.42,3.56,9.22,5.77,0.05,0,0,0,,,,19.02
Gonzales 9 SW,-97.55,29.6,-97.55,Aug 25-28 12z,,,,,,,,,,,21.37
Gonzales/Guadelupe River,-97.45,29.48,-97.45,Aug 25-28 12z,,,,,,,,,,,14.96
Gonzales/Roger M Dreyer Airport,-97.46,29.53,-97.46,Aug 25-28 12z,,,,,,,,,,,13.44
GOODRICH                 5 NW ,-95.01,30.63,-95.01,0,,,10.75,2.84,1.3,0.71,,,,,15.6
Goose Creek @ Baker Road,-94.9996,29.77,-94.9996,0.96,4,23.64,8.96,6.28,0.04,0,,,,,43.88
Goose Creek @ SH 146,-94.9905,29.71,-94.9905,1.32,3.8,20.04,9.12,4.76,0.04,0,,,,,39.08
Gordonville 3.3 NNW,-96.8817,33.84,96.8817,0.12,0,0,0,0,0,,0,,,,0.12
Gordonville 3.6 NNE,-96.8304,33.85,96.8304,,0.32,0,0,0,0,0,0,,,,0.32
Graford 8.1 ENE,-98.1215,32.99,98.1215,0.3,0.34,0.03,0,0,0,0,0,,,,0.67
GRAHAM                   5 SW ,-101.52,33.08,-101.52,,,0,0,,,,,,,,0
Graham 0.9 W,-98.5928,33.1,98.5928,0,0.03,0,0,0,0,0,0,,,,0.03
Graham 3.9 NW,-98.6296,33.13,98.6296,,0.29,,,,,,,,,,0.29
GRANBURY                 5 N  ,-97.81,32.52,-97.81,,,0.04,0.11,0.02,0,,,,,,0.17
Granbury 3.9 SSW,-97.8146,32.39,97.8146,0.64,0.04,0.24,0.15,0,0,0,0,,,,1.07
Granbury 4.9 E,-97.7043,32.44,97.7043,1.25,,0.23,0.32,,,,,,,,1.8
GRAND PRAIRIE            7 S  ,-97,32.64,-97,,,,,,0,,,,,,0
GRANGER                  8 E  ,-97.33,30.73,-97.33,0.07,0.71,3.28,1.97,0.01,,,,,,,6.04
Granger 6.8 WSW,-97.551,30.69,97.551,0.03,0.65,4.04,1.58,0.03,,,,,,,6.33
Granger Dam,-97.34,30.7,-97.34,Aug 25-28 12z,,,,,,,,,,,2.77
Granite Shoals 0.9 S,-98.381,30.58,98.381,0,0.32,0.46,0.28,0,0,0,0,,,,1.06
Granite Shoals 1.1 SE,-98.3699,30.58,98.3699,0,0.03,0.45,0.24,,,,,,,,0.72
Granite Shoals 4 NE,-98.33,30.64,-98.33,Aug 25-28 12z,,,,,,,,,,,0.77
GRAPEVINE                     ,-97.06,32.97,-97.06,,,0.12,0.98,0.02,0,,,,,,1.12
Grapevine 3.6 SW,-97.1106,32.89,97.1106,0,,,0.68,0,0,0,0,,,,0.68
Grays Prairie 4.6 S,-96.3347,32.41,96.3347,0,0,0,0.03,0,0,0,0,,,,0.03
Greens Bayou @ Bammel N Houston Road,-95.498,29.95,-95.498,0.4,6.6,16.2,5.24,1.84,0,0,,,,,30.28
Greens Bayou @ Beltway 8,-95.3493,29.94,-95.3493,0.44,8.76,15.48,6.16,3.64,0,0,,,,,34.48
Greens Bayou @ Cutten Road,-95.5194,29.94888888,-95.51944444,0.36,6.84,16.2,4.72,1.6,0,0,,,,,29.72
Greens Bayou @ Knobcrest Drive,-95.4161,29.96,-95.4161,0.4,7.76,16.08,4.84,2.16,0,0,,,,,31.24
Greens Bayou @ Ley Road,-95.2338,29.84,-95.2338,0.68,9.36,18.36,6.72,3.72,0,0,,,,,38.84
Greens Bayou @ Mount Houston Parkway,-95.2376,29.89,-95.2376,0.6,7.2,14.36,6.16,3.6,0,0,,,,,31.92
Greens Bayou @ Normandy Street,-95.2065,29.78,-95.2065,0.88,10.24,17.24,8.44,4.48,0,0,,,,,41.28
Greens Bayou @ US 59,-95.3066,29.92,-95.3066,0.68,10.12,17.6,6.2,3,0,0,,,,,37.6
GREENVILLE                    ,-96.08,33.13,-96.08,,,0,0,0,0.12,0,,,,,0.12
GREENVILLE               7 NW ,-96.08,33.17,-96.08,,,0,0,0.06,0.07,0,,,,,0.13
GREENVILLE               8 SSW,-96.16,33.04,-96.16,,,0.01,0,0,0.05,0,,,,,0.06
Groves 1.3 N,-93.92,29.96,-93.92,1.04,3.8,12.53,8.43,25.53,9.19,0.02,,,,,60.54
Groves 2.5 SE,-93.89,29.91,-93.89,0.87,1.78,6.04,5.11,13.28,6.32,0.02,,,,,33.42
Guadelupe River St,-.,,,Aug 25-28 12z,,,,,,,,,,,2.02
Gum Gully @ Diamond Head Boulevard,-95.0909,29.91,-95.0909,0.84,5.04,21.12,6.24,5.04,0,0,,,,,38.28
Gun Barrel City 1.9 NW,-96.1591,32.35,96.1591,0,0.03,0.06,0,0,0,0,0,,,,0.09
GUNTER                   5 S  ,-96.77,33.37,-96.77,,,,,0,,,,,,,0
Gustine 9.8 E,-98.2371,31.83,98.2371,,,1.65,0.6,0,,0,0,,,,2.25
GUTHRIE                       ,-100.32,33.62,-100.32,,,0,0,,,,,,,,0
GUTHRIE                 10 WSW,-100.48,33.57,-100.48,,,,0,,,,,,,,0
GUTHRIE                 12 W  ,-100.53,33.6,-100.53,,,0,0,,,,,,,,0
Hackberry Gully at State Hwy 565,-94.8433,29.8,-94.8433,0.95,5.15,20.4,8.07,7.28,0.12,0,,,,,41.97
HALLETSVILLE             2 N  ,-96.94,29.47,-96.94,,,,1.22,,,,,,,,1.22
Hallettsville,-96.94,29.44,-96.94,Aug 25-28 12z,,,,,,,,,,,19.31
Hallettsville 1.6 SSE,-96.9357,29.42,96.9357,0.39,3.75,7.3,4.5,1.3,0,0,0,,,,17.24
Hallettsville 17.1 SE,-96.7601,29.26,96.7601,0,3.84,5.25,2.94,0.74,0.02,0,0,,,,12.79
Hallettsville 2.0 ESE,-96.9119,29.43,96.9119,,6.58,7.24,3.67,,,,,,,,17.49
Hallettsville 4.9 E,-96.8606,29.44,96.8606,0.11,8.2,20.6,4.3,5.4,0,0,,,,,38.61
Hallettsville 6.8 WNW,-97.0506,29.47,97.0506,0.75,3.48,9.34,4.69,0.62,,,,,,,18.88
Hallettsville 7 N,-96.94,29.54,-96.94,Aug 25-28 12z,,,,,,,,,,,18.69
Hallettsville 8.0 N,-96.9275,29.56,96.9275,0.43,3.96,9,5.73,0.15,0,0,0,,,,19.27
Halls Bayou @ Airline Drive,-95.3967,29.89,-95.3967,0.6,7.44,17.24,6.6,2.72,0,0,,,,,34.6
Halls Bayou @ Jensen Drive,-95.3349,29.86,-95.3349,0.6,8.16,16.64,6.6,2.76,0,0,,,,,34.76
Halls Bayou @ Tidwell Road,-95.2828,29.85,-95.2828,0.6,10.24,17.8,6.64,3.4,0,0,,,,,38.68
HALLSVILLE                    ,-94.59,32.51,-94.59,,,0.09,0.81,,0.05,0.02,,,,,0.97
Hallsville 5.5 N,-94.5801,32.58,94.5801,0,0.32,0.02,0.26,0,0.05,0.54,0,,,,1.19
Hamlin 7.3 WSW,-100.247,32.85,100.247,0,,,,,,,,,,,0
Hamshire 11 SE,-94.18,29.74,-94.18,Aug 24-Sep 1 12z,,,,,,,,,,,40.59
Hamshire 2 W,-94.34,29.86,-94.34,Aug 24-Sep 1 12z,,,,,,,,,,,43.94
Hamshire 5 SSW,-94.34,29.79,-94.34,Aug 24-Sep 1 12z,,,,,,,,,,,45.79
Harker Heights 1.7 NW,-97.6773,31.08,97.6773,0,0,1.83,0.32,0,0,0,0,,,,2.15
Harker Heights 2.4 S,-97.6508,31.03,97.6508,0,0.02,1.36,0.66,0,0,0,0,,,,2.04
HARLINGEN                     ,-97.65,26.23,-97.65,0.33,0.03,0,0,,,,,,,,0.36
Harlingen 0.4 N,-97.6856,26.2,97.6856,0.35,0.1,0,0,0,0,0,0,,,,0.45
HARLINGEN 2 E,-97.67,26.2,-97.67,0.32,0.05,0,0,0,,,,,,,0.37
Harlingen 2 N,-97.69,26.22,-97.69,,0.04,,,,,,,,,,0.04
Harlingen 2 NE,-97.43,26.41,-97.43,,0.35,,,,,,,,,,0.35
Harlingen 20 SE,-97.46,25.98,97.46,,0.38,,,,,,,,,,0.38
Harlingen 3 WSW,-97.73,26.17,-97.73,,0.29,,,,,,,,,,0.29
Harlingen 4.4 W/Comes 3 SW,-97.7565,26.2,97.7565,0.13,0.16,0,0,0,0,0,0,,,,0.29
Harlingen 4.7 WSW,-97.7643,26.18,97.7643,0.11,0.11,,,0,,0,,,,,0.22
Harlingen 6.2 WSW,-97.7806,26.16,97.7806,0.06,0.02,0,0,0,0,0,0,,,,0.08
Harper,-99.24,30.3,-99.24,Aug 25-28 12z,,,,,,,,,,,1.07
HARPER                        ,-99.26,30.3,-99.26,0.33,0.13,0.74,0.2,,,,,,,,1.4
HARPER                   6 NW ,-99.33,30.36,-99.33,0,0,0.44,0.63,,,,,,,,1.07
HARPER                   8 NE ,-99.15,30.38,-99.15,0.84,0.03,0.43,0.2,,,,,,,,1.5
HARPER                   8 SSE,-99.18,30.19,-99.18,0.3,0,0.31,0.29,,,,,,,,0.9
HARPER                  13 NW ,-99.4,30.43,-99.4,0.01,0.14,0.27,0.42,,,,,,,,0.84
Harper 1.0 NW,-99.2562,30.31,99.2562,0.54,0.17,0.38,0.23,0,0,0,0,,,,1.32
Harper 1.1 ENE,-99.2264,30.3,99.2264,,0.13,0.52,0.13,,,,,,,,0.78
Harper 1.4 S,-99.2417,30.28,99.2417,0.95,,0.77,0.23,,,,,,,,1.95
Harper 10.1 SSE,-99.1533,30.18,99.1533,1.18,0.09,0.32,0,,,,,,,,1.59
Harper 3 SSW,-99.25,30.27,-99.25,Aug 25-28 12z,,,,,,,,,,,0.8
Harper 3.7 SW,-99.2926,30.27,99.2926,0,1.35,0.53,0.05,0,0,0,0,,,,1.93
Harper 4.3 SW,-99.2963,30.26,99.2963,,0.22,0.27,0.23,,,,,,,,0.72
Harper 5 WSW,-99.31,30.32,-99.31,Aug 25-28 12z,,,,,,,,,,,0.65
Harper 5.4 N,-99.2497,30.38,99.2497,,,0.55,0.53,,,,,,,,1.08
Harper 9 N,-99.24,30.45,-99.24,Aug 25-28 12z,,,,,,,,,,,1.17
Harris County Flood Control @ Brookhollow,-95.4524,29.81,-95.4524,0.72,6.6,16.52,6.16,1.88,0,0,,,,,31.88
Harris Gully @ South McGregor Way,-95.3922,29.71,-95.3922,1.04,6.16,15.32,8.48,2.88,0,0,,,,,33.88
Harwood 4.7 NNE,-97.4853,29.73,97.4853,0.02,1.82,5.87,5.15,0.05,,,,,,,12.91
Harwood 5.0 N,-97.4991,29.74,97.4991,0,,,,,0,0,0,,,,0
Haskell 0.5 NW,-99.7388,33.16,99.7388,0,0.45,0,0,0,0,0,0,,,,0.45
Haslet 2.2 S,-97.3399,32.93,97.3399,0.36,0.04,0.12,0.39,0,0,0,0,,,,0.91
Hays,-97.87,30.12,-97.87,Aug 25-28 12z,,,,,,,,,,,8.83
Hays 1 W,-97.89,30.12,-97.89,Aug 25-28 12z,,,,,,,,,,,5.73
Hays 2 WNW,-97.89,30.13,-97.89,Aug 25-28 12z,,,,,,,,,,,9.21
Hays 4.4 NW,-97.9167,30.17,97.9167,,,3.4,1.36,0.02,,,,,,,4.78
Hays 5.0 NW,-97.94,30.16,97.94,,0.78,5.65,1.33,0.02,,0,0,,,,7.78
Hays 6.0 WNW,-97.9576,30.17,97.9576,0,1.38,5.28,1.34,0.02,0,0,0,,,,8.02
Hebbronville 13.6 E,-98.465,27.34,98.465,0,0,0,0,0,0,0,0,,,,0
Hebert Heirs Marsh Ditch 551-G,-94.0739,29.85,-94.0739,0.59,2.64,5.74,6.82,20.07,1.5,0.04,,,,,37.4
Hedwig Village 1.1 NNW,-95.5261,29.79,95.5261,0,1.4,11.12,10.49,6.7,0.55,0,0,,,,30.26
Helotes 1.0 ENE,-98.678,29.57,98.678,0,0.28,1.05,0.3,0,0,0,0,,,,1.63
Helotes 1.3 NE,-98.6793,29.58,98.6793,,0.32,1.01,0.29,,,,,,,,1.62
Helotes 1.3 NNW,-98.7011,29.59,98.7011,0,0.23,0.94,0.2,0,0,,,,,,1.37
Helotes 10.5 WNW,-98.8526,29.63,98.8526,0,0.03,0.7,,,,,0,,,,0.73
Helotes 2 S,-98.69,29.56,-98.69,Aug 25-28 12z,,,,,,,,,,,1.16
Helotes 2.0 S,-98.6969,29.54,98.6969,0.18,0.28,0.38,0.43,0,0,0,0,,,,1.27
Helotes 2.4 NNW,-98.7127,29.6,98.7127,0,0.25,1.05,0.27,0,0,0,0,,,,1.57
Helotes 3.7 SSE,-98.675,29.52,98.675,0.25,0.27,0.78,0,0,0,0,0,,,,1.3
Helotes 4 WSW,-98.74,29.56,-98.74,Aug 25-28 12z,,,,,,,,,,,0.59
Hemphill 8.6 E,-93.7072,31.32,93.7072,0,0,0.6,4.5,1.4,5.7,,,,,,12.2
Hempstead 10.0 NNW,-96.1356,30.23,96.1356,1.24,2.09,10.05,7.5,0.95,0.04,0,0,,,,21.87
HENDERSON                     ,-94.83,32.16,-94.83,,,0.14,0.34,0.02,0.13,0.78,,,,,1.41
HENDERSON                     ,-94.8,32.18,-94.8,,,0.15,0.28,0.03,0.16,0.65,,,,,1.27
Henderson 6.1 NW,-94.8743,32.22,94.8743,0,0.01,0.19,0.21,0,0.03,0.7,0,,,,1.14
Henderson 6.9 WNW,-94.9107,32.18,94.9107,0,0.02,0.17,0.23,0.06,0.13,0.56,0,,,,1.17
Henderson 7.0 SSW,-94.8628,32.07,94.8628,0,0.02,0.16,0.56,0.02,0.16,0.5,0,,,,1.42
Henly,-98.09,30.19,-98.09,Aug 25-28 12z,,,,,,,,,,,5.17
Henly 3 NE,-98.06,30.22,-98.06,Aug 25-28 12z,,,,,,,,,,,2.42
HENRIETTA                3 W  ,-98.24,33.83,-98.24,,,0,0,0,,,,,,,0
Hereford 2.4 ENE,-102.3582,34.84,102.3582,0.84,0,0,0,0,0,0,0,,,,0.84
Hewitt 1.4 NNW,-97.203,31.47,97.203,1,0.02,0.79,0.35,,,,0,,,,2.16
Highland Avenue @ Ditch 104,-94.0833,30.03,-94.0833,0.67,2.96,10.43,6.38,19.96,6.1,0,,,,,46.5
Highland Haven 1.3 SW,-98.3976,30.6,98.3976,0.45,0,0.61,0.39,0,0,0,0,,,,1.45
Highlands 2 SSE,-95.04,29.79,-95.04,Aug 25-31 12z,,,,,,,,,,,45.1
Hill Country Village 1.2 SE,-98.4775,29.57,98.4775,0,0.3,1.57,0.17,0,0,0,0,,,,2.04
Hill Country Village 2.3 ESE,-98.4573,29.57,98.4573,,,0.9,0.06,0,0,0,,,,,0.96
Hillebrandt Bayou @ Hillebrandt Road D-100,-94.1103,29.93,-94.1103,0.52,1.61,6.1,6.34,23.11,3.19,0,,,,,40.87
HILLSBORO                     ,-97.12,32.02,-97.12,,,0.23,,,,,,,,,0.23
Hitchcock 1.6 NNW,-95.0261,29.34,95.0261,1.7,3.18,18.2,3.02,10.41,2.07,0,0,,,,38.58
HOCKLEY                       ,-95.84,29.92,-95.84,,2.42,,,3.56,,,,,,,5.98
Hockley 2.5 ESE,-95.8043,30.02,95.8043,,3.65,,,,,,,,,,3.65
Hollywood Park 0.7 NW,-98.4925,29.61,98.4925,0.31,0.34,1.32,0.22,0,0,0,0,,,,2.19
Hollywood Park 1.6 N,-98.4797,29.62,98.4797,0.05,0.43,3.26,0.43,,,,,,,,4.17
Hollywood Park 1.7 ESE,-98.4579,29.59,98.4579,0,0.36,1.58,0.24,0,0,0,0,,,,2.18
Hollywood Park 1.8 N,-98.4879,29.62,98.4879,0.03,0.12,0.65,0.04,,,,,,,,0.84
Hollywood Park 3 NE,-98.46,29.63,-98.46,Aug 25-28 12z,,,,,,,,,,,2.79
Hollywood Park 3.1 NE,-98.4463,29.63,98.4463,,,2.73,,,,,,,,,2.73
Hollywood Park 3.3 ENE,-98.4313,29.61,98.4313,0,0.39,1.89,0.15,0,0,0,0,,,,2.43
Hollywood Park 3.7 NNE,-98.4615,29.65,98.4615,0.1,0.33,2.45,0.29,0,0,0,0,,,,3.17
Hollywood Park 4.3 ENE,-98.4169,29.62,98.4169,0,0.37,3.96,0.34,0,0,0,0,,,,4.67
Hollywood Park 4.5 NE,-98.4338,29.65,98.4338,0.13,,,0.22,0.01,0,0,0,,,,0.36
Hollywood Park 5 ENE,-98.43,29.62,-98.43,Aug 25-28 12z,,,,,,,,,,,2.74
Hollywood Park 5.2 NE,-98.4178,29.65,98.4178,0.15,0.4,2.55,0.29,0,0,0,0,,,,3.39
HONDO                         ,-99.18,29.36,-99.18,0,0.01,0.05,0,,,,,,,,0.06
Hondo 11.0 E,-98.9775,29.34,98.9775,,,0.35,0.06,,,0,,,,,0.41
Hondo 14.1 ENE,-98.9413,29.43,98.9413,0,0.01,0.12,0,0,0,0,0,,,,0.13
Hondo 2.0 SE,-99.1387,29.33,99.1387,0,0.03,0.04,0,0,0,0,0,,,,0.07
Hondo 3.4 S,-99.1629,29.31,99.1629,0,0.08,0.07,0,0,0,0,0,,,,0.15
Hondo 5.6 ESE,-99.0722,29.33,99.0722,,0,0.07,,,,,,,,,0.07
Hondo 6.9 SSE,-99.13,29.26,99.13,0,0,0.06,0.05,0,0,0,0,,,,0.11
Hondo 7.7 NW,-99.2492,29.44,99.2492,0,0.03,0.05,0,0,0,0,0,,,,0.08
Hondo 8.7 E,-99.0171,29.36,99.0171,0,0.01,0.08,0,0,0,0,0,,,,0.09
Hondo 8.7 ENE,-99.0246,29.4,99.0246,0,0.02,0.04,0,0,0,0,0,,,,0.06
Hondo 8.8 E,-99.0117,29.35,99.0117,0,0.01,0.06,0.01,0,0,0,0,,,,0.08
Horsepen @ Trailside Drive,-95.6347,29.88,-95.6347,0.68,9.24,14.48,4.12,1.32,0,0,,,,,29.84
Horsepen Creek @ Bay Area Boulevard,-95.1034,29.58,-95.1034,1.84,8.52,19.12,12.28,3.92,0,0,,,,,45.68
Horseshoe Bay 2.7 S,-98.3599,30.5,98.3599,0.33,0.59,1.29,0.61,0,0,0,0,,,,2.82
Horseshoe Bay 4.1 WNW,-98.4197,30.56,98.4197,0,0.07,0.76,,,,,,,,,0.83
Horseshoe Bay 5 WSW,-98.46,30.56,-98.46,Aug 25-28 12z,,,,,,,,,,,1.71
Horseshoe Bay Resort Airport,-98.36,30.53,-98.36,Aug 25-28 12z,,,,,,,,,,,1.49
HOUSTON                       ,-95.4,29.88,-95.4,,,,9.64,,,,,,,,9.64
HOUSTON                       ,-95.22,29.59,-95.22,0.04,,,,,,,,,,,0.04
HOUSTON                       ,-95.51,29.75,-95.51,,2.36,,,,,,,,,,2.36
HOUSTON                       ,-95.45,29.8,-95.45,,,,8,,,,,,,,8
HOUSTON                       ,-94.99,29.71,-94.99,,,,7.6,,,,,,,,7.6
HOUSTON                       ,-95.47,29.68,-95.47,,,,8,,,,,,,,8
HOUSTON                       ,-95.1,29.58,-95.1,,,,7.72,,,,,,,,7.72
HOUSTON                       ,-95.29,29.75,-95.29,,,,9,,,,,,,,9
HOUSTON                       ,-95.3,29.72,-95.3,0.04,,,,,,,,,,,0.04
HOUSTON                       ,-95.23,29.89,-95.23,,,,,8.25,,,,,,,8.25
HOUSTON                       ,-95.73,29.78,-95.73,,,8.28,,,,,,,,,8.28
HOUSTON                       ,-95.35,29.71,-95.35,,,,6.8,,,,,,,,6.8
HOUSTON                 12 N  ,-95.35,29.94,-95.35,,,,9.16,,,,,,,,9.16
Houston 1.4 NE,-95.3735,29.79,95.3735,,3.02,14.2,10.44,7.56,1.02,0,0,,,,36.24
Houston 1.9 W,-95.4183,29.77,95.4183,,3.2,11.4,8.14,7.5,0.86,0.02,,,,,31.12
Houston 2.1 NNE,-95.3741,29.8,95.3741,0.03,2.92,11.2,9.72,7.35,1,0,0,,,,32.22
Houston 2.1 SSW,-95.3977,29.74,95.3977,0.02,2.63,13.8,6.09,8.29,0.93,0,0,,,,31.76
Houston 4.7 WNW,-95.4529,29.81,95.4529,0,3,11.25,,,,0,0,,,,14.25
HOUSTON Bush Intercontinental Airport,-95.34,29.98,-95.34,0,0.89,13.43,10.75,5.28,0.91,0,,,,,31.26
HOUSTON Bush Intercontinental Airport 4 N,-95.33,30.03,-95.33,Aug 25-31 12z,,,,,,,,,,,34.9
HOUSTON Pearland/Clover Field                ,-95.24,29.52,-95.24,0.22,3.43,11.26,4.94,12.42,1.32,0.84,,,,,34.43
Houston Transtar,-95.4396,29.78,-95.4396,0.92,7.76,17.08,6.72,2.2,0,0,,,,,34.68
HOUSTON TX/HUNTING BAYOU AT HOFFMAN ST,-95.31,29.81,-95.31,,,,,8.04,,,,,,,8.04
HOUSTON/BERRY BAYOU @ NEVADA ST             ,-95.24,29.68,-95.24,,,,8.28,,,,,,,,8.28
HOUSTON/BRAYS BAYOU @ GESSNER DR                ,-95.53,29.67,-95.53,,,,,7.91,,,,,,,7.91
HOUSTON/BRICKHOUSE GULLY @ COSTA RICA ST               ,-95.47,29.83,-95.47,,,,8.52,,,,,,,,8.52
HOUSTON/COLE CREEK @ DEIHL RD                   ,-95.49,29.85,-95.49,,,,9.16,,,,,,,,9.16
HOUSTON/D. W. Hooks Airport ,-95.55,30.06,-95.55,0,1.47,10.42,10.4,4.16,0.56,0,,,,,27.01
Houston/D. W. Hooks Airport 3 N,-95.55,30.1,-95.55,Aug 25-31 12z,,,,,,,,,,,27.2
HOUSTON/GREENS BAYOU @ CUTTEN RD,-95.5,29.95,-95.5,,,,,4.88,,,,,,,4.88
HOUSTON/GREENS BAYOU @ LEY RD                  ,-95.23,29.84,-95.23,,1.68,,,,,,,,,,1.68
HOUSTON/LITTLE WHITEOAK BAYOU @ TRIMBLE ST                  ,-95.37,29.8,-95.37,,,,9.12,,,,,,,,9.12
HOUSTON/Meyerland 1 S   ,-95.47,29.68,-95.47,0.02,2.98,12.73,6.25,8.46,0.87,,,,,,31.31
HOUSTON/SIMS BAYOU @ HIRAM CLARKE ST                   ,-95.45,29.62,-95.45,0.12,,,,,,,,,,,0.12
HOUSTON/Sugarland/Hull Field           ,-95.66,29.62,-95.66,0.33,7,,8.28,6.79,0.27,,,,,,22.67
